[
{"guid":"cc7c4fe32dc1480693783b3daa13a5b3.11","title":"Stazione FNM Palazzolo","coordinates":{"lat":"45.580538","lng":"9.156772"},"link":{"intel":"https://intel.ingress.com/intel?ll=45.580538,9.156772&z=16&pll=45.580538,9.156772","gmap":"https://google.com/maps/place/45.580538,9.156772"},"image":"https://lh3.googleusercontent.com/oq5_oSJf2NzWbnvKWT8r6mLk-TYNENiDpMW91AciSfuJTiKfgrz_d-tNRChMKJZLTovo4ziN6e4ZvZBOHUNS9oScWTY"},
{"guid":"74cd5b3eb15d4411adf8042f8a2562ea.16","title":"Castello Via Bolivia","coordinates":{"lat":"45.580321","lng":"9.154542"},"link":{"intel":"https://intel.ingress.com/intel?ll=45.580321,9.154542&z=16&pll=45.580321,9.154542","gmap":"https://google.com/maps/place/45.580321,9.154542"},"image":"https://lh3.googleusercontent.com/irPMuZzEryLlte-REF-cocBQ9yIfKb-MtXHdm-zJWLnzjLExDtf2ErItkGoQq0kcwg2PIK3yWYIAvfTwWwqEUu_b9zsZ"},
{"guid":"b2c92033b2f93f2ab86c661ddd0895ba.16","title":"Area Parco Giochi Via Bolivia","coordinates":{"lat":"45.580312","lng":"9.156215"},"link":{"intel":"https://intel.ingress.com/intel?ll=45.580312,9.156215&z=16&pll=45.580312,9.156215","gmap":"https://google.com/maps/place/45.580312,9.156215"},"image":"https://lh3.googleusercontent.com/0AVTYXHAmY9ZIoDi4vavk-gpSKQob1NuxY2Bbuc2hBocR7oCikTOg9Zo6coO1-yXImPjl45JndSvYXoQoO-PKqk590t4WgOqOhxDduM"},
{"guid":"72619bb40d0842df8d3bfef6df9d057e.16","title":"Fontana con pesci Palazzolo M.se -Paderno Dugnano","coordinates":{"lat":"45.581208","lng":"9.157316"},"link":{"intel":"https://intel.ingress.com/intel?ll=45.581208,9.157316&z=16&pll=45.581208,9.157316","gmap":"https://google.com/maps/place/45.581208,9.157316"},"image":"https://lh3.googleusercontent.com/UlEPkCQIVQiRq7jz8PWqcNJO2G4koBLCSqayAxDP4jkOL8X0Dvzzy4r3YbhRdIWCt3VemeXuH8G5HDamJXWVL877dUw"},
{"guid":"b687e284b3c741f49c6cf21ef7873712.16","title":"Parco della Stazione Palazzolo M.se-Paderno Dugnano","coordinates":{"lat":"45.581014","lng":"9.157491"},"link":{"intel":"https://intel.ingress.com/intel?ll=45.581014,9.157491&z=16&pll=45.581014,9.157491","gmap":"https://google.com/maps/place/45.581014,9.157491"},"image":"https://lh3.googleusercontent.com/-lb7M1GAKwQcT3SOAiSpiDk0qpk4M_lgyk32lDETnI0shurLJLNTv2b0Q-ZQThAFof4d6WhYJfBv_G5xHkXDA_Jonw"},
{"guid":"13b0e8a79518476f902cc958596960c8.16","title":"Parco giochi Europa Palazzolo M.se - Paderno Dugnano","coordinates":{"lat":"45.579862","lng":"9.166712"},"link":{"intel":"https://intel.ingress.com/intel?ll=45.579862,9.166712&z=16&pll=45.579862,9.166712","gmap":"https://google.com/maps/place/45.579862,9.166712"},"image":"https://lh3.googleusercontent.com/zHD-_n3xftt7731_nM_PqDXPgOP2Vv9WhiveiqxGXklPkyXZH8QpmxIwHq7dD2lePHzFXdKxHtwQCKL50EUUxRdu06dP"},
{"guid":"486ed75440aa38a79c53055641b82242.16","title":"Madonnina nella nicchia","coordinates":{"lat":"45.58007","lng":"9.161216"},"link":{"intel":"https://intel.ingress.com/intel?ll=45.58007,9.161216&z=16&pll=45.58007,9.161216","gmap":"https://google.com/maps/place/45.58007,9.161216"},"image":"https://lh3.googleusercontent.com/iQWZiaDrmFapdD5_2Y2JUHDMGvEe8BAqm0D9t9Ge-I_eRdkk2rFPcBqZrMQlNhDIguEHO_QL0ZpgrX0ofuLZT_yw1xGeXTtq7qRX0QY"},
{"guid":"629bfe783ef04f3581000e4eec3658dc.16","title":"Ingresso associazione sportiva Olimpica Palazzolo M.se- Paderno Dugnano","coordinates":{"lat":"45.581246","lng":"9.165074"},"link":{"intel":"https://intel.ingress.com/intel?ll=45.581246,9.165074&z=16&pll=45.581246,9.165074","gmap":"https://google.com/maps/place/45.581246,9.165074"},"image":"https://lh3.googleusercontent.com/AercjC7LFt-QzpREyZcWXi9vztX6wtpc_a08tSkKYuqb97wTwtkOpDQXVstn0Ux1BY2yo3GGfu_21weTBTDZaICGjn4"},
{"guid":"19e0ab12610c426b8d92b5e26ff0247d.16","title":"Targa - Oasi del cavallo Paderno Dugnano","coordinates":{"lat":"45.581276","lng":"9.165443"},"link":{"intel":"https://intel.ingress.com/intel?ll=45.581276,9.165443&z=16&pll=45.581276,9.165443","gmap":"https://google.com/maps/place/45.581276,9.165443"},"image":"https://lh3.googleusercontent.com/KeIKEKeHQ5tx9EKcnq2yg0Wwi5cB0NssbP1SvzK3-xxLh4pC86J0JnVauzL15XoVdWA4Fmya86CZZ9822HJ2r8enhrIbH-om-UxHmWs"},
{"guid":"b4f56d6153b84f5f9d92deb596c4af88.16","title":"Porta Luigi Tonelli - Parco Lago Nord","coordinates":{"lat":"45.579516","lng":"9.177831"},"link":{"intel":"https://intel.ingress.com/intel?ll=45.579516,9.177831&z=16&pll=45.579516,9.177831","gmap":"https://google.com/maps/place/45.579516,9.177831"},"image":"https://lh3.googleusercontent.com/skI9WFKQeS9peippRDTSLgi-ro9j9JDTtuaYHnx9y45H2-dn3LcKGoW7UxcFHFiAd5amUzOfVqZ4GVWqRNvtxHohJO7V"},
{"guid":"bfd0e6647f8a49049cfda280e12b3a12.16","title":"F.I.P.S.A.S. - Scuola Federale di Avviamento alla Pesca","coordinates":{"lat":"45.579734","lng":"9.178347"},"link":{"intel":"https://intel.ingress.com/intel?ll=45.579734,9.178347&z=16&pll=45.579734,9.178347","gmap":"https://google.com/maps/place/45.579734,9.178347"},"image":"https://lh3.googleusercontent.com/M11D9u5DteKTfxp114BPUeVHKXlXK-BJA1hBpJiefwd1ZTrPXTL7Ti0ZdjR9e2fxt740sjlKXcKq6SqmMR6KohQaDwQ"},
{"guid":"970dbc6ff9474e24a8f063296378e0c2.16","title":"Cartello Informativo Parco Lago Nord - Paderno Dugnano","coordinates":{"lat":"45.579447","lng":"9.178102"},"link":{"intel":"https://intel.ingress.com/intel?ll=45.579447,9.178102&z=16&pll=45.579447,9.178102","gmap":"https://google.com/maps/place/45.579447,9.178102"},"image":"https://lh3.googleusercontent.com/Ba1YSzhF9MmlBrRCriNQzfOrCgL4pVMSQeNnei4UTIaBPWfuU518kDz7meoj1TKrn3vOOksrFbyoVQg8gnP3VsW0PiHU"},
{"guid":"1b10583359e13e8dbd9cb37ad4f07e40.16","title":"Scivolo blu","coordinates":{"lat":"45.578507","lng":"9.1508"},"link":{"intel":"https://intel.ingress.com/intel?ll=45.578507,9.1508&z=16&pll=45.578507,9.1508","gmap":"https://google.com/maps/place/45.578507,9.1508"},"image":"https://lh3.googleusercontent.com/bFxPIpSiXH55xtRliSnEnxwA-R-yLxcqFPP7MJ9ghgnq82Rxw6xrdllVdZKpNFy2ZBf2I3CiiqRZy1HjdzvVVRNqcjE4XvxirVgPs_oT"},
{"guid":"4cbc5196157c379ba7fc3a01013f0bc7.16","title":"Murales Fantasmino Rosso","coordinates":{"lat":"45.578109","lng":"9.152531"},"link":{"intel":"https://intel.ingress.com/intel?ll=45.578109,9.152531&z=16&pll=45.578109,9.152531","gmap":"https://google.com/maps/place/45.578109,9.152531"},"image":"https://lh3.googleusercontent.com/bXh51cqeoQYibdL08DRCjjIe04q-nJk0XwVlpFS71hUjzcABEe5sp4QkNhuTTs35aUD4tRjAAdi50BukBT-esxZDDpYCLpveSZ8MW-gk"},
{"guid":"db41827176be44d185bff8bae0acf90a.16","title":"Campo Da Basket","coordinates":{"lat":"45.577756","lng":"9.151869"},"link":{"intel":"https://intel.ingress.com/intel?ll=45.577756,9.151869&z=16&pll=45.577756,9.151869","gmap":"https://google.com/maps/place/45.577756,9.151869"},"image":"https://lh3.googleusercontent.com/BN6X3f5ARb1RMcCkSvsSc3Dl961lKYblreDJ6W9Tnw9sw-D-tfagSnha6nFOO4Y7TG0XTtmf8usTkxrF0mdcUC5D6FQ"},
{"guid":"43395b1e8e664d7892b1f25a9f08266d.16","title":"Area Cani - Parco di Palazzolo","coordinates":{"lat":"45.578022","lng":"9.151257"},"link":{"intel":"https://intel.ingress.com/intel?ll=45.578022,9.151257&z=16&pll=45.578022,9.151257","gmap":"https://google.com/maps/place/45.578022,9.151257"},"image":"https://lh3.googleusercontent.com/BVWetqBnrcAYHPZI6RE3EFu2rHED9_2rlTL3j8_rSYB04iaHd0ACuLBo1fnJv3NgExNgEVpWp2kmxqSS0yZVA5nUIrE"},
{"guid":"eefc87695f154ce79b50442d59f40f52.16","title":"Piccolo anfiteatro - Parchetto di Palazzolo","coordinates":{"lat":"45.578055","lng":"9.151792"},"link":{"intel":"https://intel.ingress.com/intel?ll=45.578055,9.151792&z=16&pll=45.578055,9.151792","gmap":"https://google.com/maps/place/45.578055,9.151792"},"image":"https://lh3.googleusercontent.com/Lnhj-pQpJoBJ4vE8rRkj9YBmWFNBFdveacpKchzAQqQSWO8V6uXl8OG0KX-5_ZhUWb0suxgtqQ2wsL8rGfq_V5D0qKk"},
{"guid":"f9d217abf8484ce29ad9cd8a68a102c1.16","title":"Campo da calcio a 5 - Palazzolo Milanese","coordinates":{"lat":"45.577525","lng":"9.150588"},"link":{"intel":"https://intel.ingress.com/intel?ll=45.577525,9.150588&z=16&pll=45.577525,9.150588","gmap":"https://google.com/maps/place/45.577525,9.150588"},"image":"https://lh3.googleusercontent.com/Ti0U0rni5Uz7Cbiw9gQTOWle96_j9DkjIyi_tUV2k_BwJ-zlR2uateBmTKcGoA1Nz_DvDj22ZK3PNbZjrAf26Y1hlx5D"},
{"guid":"67155286476b3bddb76e4a964be42118.16","title":"Altalena Doppia","coordinates":{"lat":"45.577481","lng":"9.150513"},"link":{"intel":"https://intel.ingress.com/intel?ll=45.577481,9.150513&z=16&pll=45.577481,9.150513","gmap":"https://google.com/maps/place/45.577481,9.150513"},"image":"https://lh3.googleusercontent.com/aY2_udDOPq4IhqpPA7VABwgf_HYFAzY1lMoWZx4UjgiSwOmJK2A8ezwYTNPvT5EPMT9dGbg-yk5kidiBxSQhyDF0kyf8ivsh0m25E0VsgQ"},
{"guid":"7f118afd2d314e21abfc131bce56e524.16","title":"Quadro Svedese - Area Giochi","coordinates":{"lat":"45.577737","lng":"9.154652"},"link":{"intel":"https://intel.ingress.com/intel?ll=45.577737,9.154652&z=16&pll=45.577737,9.154652","gmap":"https://google.com/maps/place/45.577737,9.154652"},"image":"https://lh3.googleusercontent.com/U4w98ulm_V2rI-QfHfJhHWhFx3ARMv-SyKAm1yXeDB3F_FaroeC0OqJgIf2LIm9XfG4IW4uj44PvASOUDofh8S4DfTCD"},
{"guid":"b1bcd4e5fa22316b80d9bb08a515f31d.16","title":"Infopoint - Servizio pubbliche affissioni di Paderno","coordinates":{"lat":"45.578164","lng":"9.156006"},"link":{"intel":"https://intel.ingress.com/intel?ll=45.578164,9.156006&z=16&pll=45.578164,9.156006","gmap":"https://google.com/maps/place/45.578164,9.156006"},"image":"https://lh3.googleusercontent.com/4j7gVfn2yvpvSLfpRwp6NFr-UX-FC6CwDQJqniMCxJrJvxrK5iuS5HUyzv4lSobtr6uvkmaITvbmy_KKONw9JTg1ewdKAsvhhRLu-ck"},
{"guid":"5abce1b8ecbb3392848c27b7b00990a5.16","title":"Parrocchia S.Martino","coordinates":{"lat":"45.578215","lng":"9.156259"},"link":{"intel":"https://intel.ingress.com/intel?ll=45.578215,9.156259&z=16&pll=45.578215,9.156259","gmap":"https://google.com/maps/place/45.578215,9.156259"},"image":"https://lh3.googleusercontent.com/idf2KHSJPdYToVApL4SN4uMHlVTgnCzilMeMvB_x2TzWApPRVWv_1sLSm1CmwpRBN-rRX06SbCKIAq4mvY_B6eyEXRbmVDKRsDqrrEtf-g"},
{"guid":"3184ea955f55490eaffed6e5fa565e86.16","title":"Palco Piazza Mercato","coordinates":{"lat":"45.57755","lng":"9.153794"},"link":{"intel":"https://intel.ingress.com/intel?ll=45.57755,9.153794&z=16&pll=45.57755,9.153794","gmap":"https://google.com/maps/place/45.57755,9.153794"},"image":"https://lh3.googleusercontent.com/H2NLmht2yszw0i-h_i6gYM3iiNc76MdOq3XvXYmh0xalcfGwjO3sjfV04eWInnn692StVMGI-Q-AIh6VH7RTdzDbOYs"},
{"guid":"e240e66bd5b1317bb0c99648e68edcdb.16","title":"Palestra Supreme Combat e Fitness Club","coordinates":{"lat":"45.575115","lng":"9.151872"},"link":{"intel":"https://intel.ingress.com/intel?ll=45.575115,9.151872&z=16&pll=45.575115,9.151872","gmap":"https://google.com/maps/place/45.575115,9.151872"},"image":"https://lh3.googleusercontent.com/_67tMq-jEmzF-3M3Cxpv34IxiZ1y1LnTGtoCjpHVGkqwldKCgFsDdQK44uDr1Qgn2fYnYJyuQ3L8CKYs0hIXGs8-Mk4rwiv5ZOIvjnM"},
{"guid":"81644e3716c93cf3ab59ddcca847bf0b.16","title":"Paderno Dugnano - Playground","coordinates":{"lat":"45.578128","lng":"9.156517"},"link":{"intel":"https://intel.ingress.com/intel?ll=45.578128,9.156517&z=16&pll=45.578128,9.156517","gmap":"https://google.com/maps/place/45.578128,9.156517"},"image":"https://lh3.googleusercontent.com/f-hEDNgnDkmMOUp2ewhP_tiFlUvEtIxwOuqJFNa8sEBZc1HhNB8GZ4fAMi2R9YXdX6is5xjFj8cuTlQAmfA-s-PmJ53mRtYBN5r6Vx0"},
{"guid":"fa7cda38354345d9997e3fc505d90320.16","title":"Ponte metallico ciclopedonale","coordinates":{"lat":"45.574916","lng":"9.158358"},"link":{"intel":"https://intel.ingress.com/intel?ll=45.574916,9.158358&z=16&pll=45.574916,9.158358","gmap":"https://google.com/maps/place/45.574916,9.158358"},"image":"https://lh3.googleusercontent.com/f6QS1pWJfAW42AyA0XUtOXYQtRGeowY2LbHHa51Jnt3c-C2UM4UAdcPXwtkf8TXuUZRBmT1BC_BpdcP7yM87oIAkRw"},
{"guid":"91f0e4bab8934bd487f00240e433a5d0.16","title":"Area gioco bimbi","coordinates":{"lat":"45.575818","lng":"9.160545"},"link":{"intel":"https://intel.ingress.com/intel?ll=45.575818,9.160545&z=16&pll=45.575818,9.160545","gmap":"https://google.com/maps/place/45.575818,9.160545"},"image":"https://lh3.googleusercontent.com/gGxmzF5P_u789pZLLU4YvZnR9ErJzSFYrWmuS1pJ_We41TL07GlZoK7fpV1MNxwio8bMV-xpGFON7Px-8e6bFYJ4qyr4"},
{"guid":"cb88c01f64874d59a4e7b3dfbf7cdb77.16","title":"Fontana Ottagonale","coordinates":{"lat":"45.576635","lng":"9.16043"},"link":{"intel":"https://intel.ingress.com/intel?ll=45.576635,9.16043&z=16&pll=45.576635,9.16043","gmap":"https://google.com/maps/place/45.576635,9.16043"},"image":"https://lh3.googleusercontent.com/w8vtaGBbpzLOyfsrcaBfG_QFzIJ3VI4w4v7FQvDvkXx-bgXvklTm0Yo-IfHh3rE7m7-1VSFPTp2P_NkulM_I6iUuQ8c"},
{"guid":"639c9b563edd454fb169b54eca99c7dc.16","title":"Area Cani - Cani in Libertà","coordinates":{"lat":"45.575291","lng":"9.159695"},"link":{"intel":"https://intel.ingress.com/intel?ll=45.575291,9.159695&z=16&pll=45.575291,9.159695","gmap":"https://google.com/maps/place/45.575291,9.159695"},"image":"https://lh3.googleusercontent.com/4lF8cwyM2zevDBgAHMjlT7I5mqThDdOLilhbG34v3Jpifl34X9EIHTt1hUnAEY-JUMM4wDVpTn2d7aBSNIrvc1dzrdgh"},
{"guid":"537590dab4f0463096f9855b2466c1c1.11","title":"Torretta di Incirano","coordinates":{"lat":"45.576648","lng":"9.161353"},"link":{"intel":"https://intel.ingress.com/intel?ll=45.576648,9.161353&z=16&pll=45.576648,9.161353","gmap":"https://google.com/maps/place/45.576648,9.161353"},"image":"https://lh3.googleusercontent.com/qyXXJ6dRhDS8_vB32iD5Kj8_zJBlb0vtLW_K9DFp3hDSW3S6yhEu1TyPbPrdOhfwxhR6rk7MGJejFXgsfX_0M-iLrA"},
{"guid":"40ec97e5ef533480a140ed738b7275c8.16","title":"Bilancina quadrupla","coordinates":{"lat":"45.577548","lng":"9.160202"},"link":{"intel":"https://intel.ingress.com/intel?ll=45.577548,9.160202&z=16&pll=45.577548,9.160202","gmap":"https://google.com/maps/place/45.577548,9.160202"},"image":"https://lh3.googleusercontent.com/zPN5OlBaj8CePZIcR08Fs-lhRTX_N6A31DA88frztEvjNw5jXXCOqhHEdnc6Ti-xPgM1eBSXKspeYDHGPkDAMU9bTEz4oIEmjUWZJbYZ8A"},
{"guid":"4f69ae27c9ac43e5a3ecf785e7e4c021.16","title":"Playground Incirano","coordinates":{"lat":"45.577387","lng":"9.160068"},"link":{"intel":"https://intel.ingress.com/intel?ll=45.577387,9.160068&z=16&pll=45.577387,9.160068","gmap":"https://google.com/maps/place/45.577387,9.160068"},"image":"https://lh3.googleusercontent.com/2CMR7XBxHobwO56KhNnp2qFKAapouIsW1CCgsfXEvlwDr6zOLq2ABsgG1XQui00pur15ZdIrFE9m375hKRPfogk6MIg9"},
{"guid":"ef90a0f4ae5b4bc0b4a1c8846000b33d.16","title":"Bilancina quadrupla","coordinates":{"lat":"45.577543","lng":"9.160212"},"link":{"intel":"https://intel.ingress.com/intel?ll=45.577543,9.160212&z=16&pll=45.577543,9.160212","gmap":"https://google.com/maps/place/45.577543,9.160212"},"image":"https://lh3.googleusercontent.com/_dPw87vCuMAnFnimtYUpVKc-gEbHI1vgycA-ZJEzTQLVZLwyBLF-55NkFsiitrxumAb4Np3CqNMPM_dJ3FOIZRSstg"},
{"guid":"b4f203e6a53048cba646c7a1a0737503.16","title":"Parchetto del Seveso in Via Italia - Paderno Dugnano","coordinates":{"lat":"45.577579","lng":"9.161383"},"link":{"intel":"https://intel.ingress.com/intel?ll=45.577579,9.161383&z=16&pll=45.577579,9.161383","gmap":"https://google.com/maps/place/45.577579,9.161383"},"image":"https://lh3.googleusercontent.com/Yeors_w7EeIG94jb7QHZhS-YQy_o-JiHGqmUbzTv_ICyGk2Xs07T8PJU3sj3jzNEB0zKaBz3TVWDuWpAHJU0WQHOH9M"},
{"guid":"650f275de993476fb8a010c3a8595460.16","title":"Panchina Rossa contro la violenza sulle donne","coordinates":{"lat":"45.576748","lng":"9.161652"},"link":{"intel":"https://intel.ingress.com/intel?ll=45.576748,9.161652&z=16&pll=45.576748,9.161652","gmap":"https://google.com/maps/place/45.576748,9.161652"},"image":"https://lh3.googleusercontent.com/ntHdnbXMXsESLWeDmRewHn5WYfJN2LfhuTHyLi81wa1ZeJLk-XVG92nxxd8fibkr1_vf3V2UqyXu8r9i_5nR7sVj-Q"},
{"guid":"d7130a94b78d4ca89a9f8b6d3e227bad.16","title":"Convento della Comunità Pastorale S.Maria Assunta","coordinates":{"lat":"45.579036","lng":"9.168109"},"link":{"intel":"https://intel.ingress.com/intel?ll=45.579036,9.168109&z=16&pll=45.579036,9.168109","gmap":"https://google.com/maps/place/45.579036,9.168109"},"image":"https://lh3.googleusercontent.com/QhRdz6R252qk9HVdZcPayirNjEbekln_XI0WuA-bivjsS1-fu73tPF2EdkqJbXXR8DrpVYK96WDgGgylHQHkS_MVig"},
{"guid":"a5444b2507823771944a7d7c112f15ef.16","title":"Parco del ricordo","coordinates":{"lat":"45.573552","lng":"9.167453"},"link":{"intel":"https://intel.ingress.com/intel?ll=45.573552,9.167453&z=16&pll=45.573552,9.167453","gmap":"https://google.com/maps/place/45.573552,9.167453"},"image":"https://lh3.googleusercontent.com/tDoVbLeTneX0l2ytPAet8HIFHRCPnZqwzxZOi7_yYzZenbWMKcUJoWMDxE8uhjT-7nBw045DUimFzRjGR6Bpx5o_kNTm22iYQN63KOk"},
{"guid":"da2169c2b2bb41ada5ec29e2dbd81770.16","title":"Pista di Pattinaggio del Parco dell'Asl - Paderno Dugnano","coordinates":{"lat":"45.571981","lng":"9.168609"},"link":{"intel":"https://intel.ingress.com/intel?ll=45.571981,9.168609&z=16&pll=45.571981,9.168609","gmap":"https://google.com/maps/place/45.571981,9.168609"},"image":"https://lh3.googleusercontent.com/lGDG8_rcHD9VMWw7IpbZGiFVNIxsGrnnzhRP5BqsOixGmioe1tYmkLYBbY3ChrlJPAo7VdNv-Dvy_SzmMYlykeI5Crw"},
{"guid":"75f4e625fd6146d09533ab5874da74e2.16","title":"Parco di Via Aurora/S. Michele del Carso","coordinates":{"lat":"45.572805","lng":"9.168104"},"link":{"intel":"https://intel.ingress.com/intel?ll=45.572805,9.168104&z=16&pll=45.572805,9.168104","gmap":"https://google.com/maps/place/45.572805,9.168104"},"image":"https://lh3.googleusercontent.com/dRaGgmAZeFx9LyzMLlS2mtWiNW3bKMXqIDdrJlBA2RmHygrXYiWhgB4c6XKn3VSXKM8w2Um9FNZLM8O_fjFNvYG0RNlg"},
{"guid":"b081a6fe6f3a3cee9c949af0b311de1e.16","title":"Area Giochi Bimbi - Anfiteatro","coordinates":{"lat":"45.573564","lng":"9.167196"},"link":{"intel":"https://intel.ingress.com/intel?ll=45.573564,9.167196&z=16&pll=45.573564,9.167196","gmap":"https://google.com/maps/place/45.573564,9.167196"},"image":"https://lh3.googleusercontent.com/dqO72aPSr6MGxxVMfs8kUtqJ9LsvhD4eEJyldFqP0yK8oJJZYyUPCU17k7_4C7BdkB_otrXRXv8qVlnnwMif1X2YI3Nv6bKVeemd-QCA"},
{"guid":"19cede05c07e488eb00da7c4856d2b6a.16","title":"Fortino di Legno","coordinates":{"lat":"45.572118","lng":"9.168183"},"link":{"intel":"https://intel.ingress.com/intel?ll=45.572118,9.168183&z=16&pll=45.572118,9.168183","gmap":"https://google.com/maps/place/45.572118,9.168183"},"image":"https://lh3.googleusercontent.com/JgNCn8KocYJJ8hZB-7Rwz-J35Kkyi68Q49x_TkernXnrDOND49VLXMYcTRxO1Jm9e27-QtBG-2YNCYQY6_LVrm607B2B"},
{"guid":"a3ebd38fd07c31be84fbea4f51860f84.16","title":"Comunità Alloggio L' Ancora - Associazione La Rondine Onlus","coordinates":{"lat":"45.573931","lng":"9.16449"},"link":{"intel":"https://intel.ingress.com/intel?ll=45.573931,9.16449&z=16&pll=45.573931,9.16449","gmap":"https://google.com/maps/place/45.573931,9.16449"},"image":"https://lh3.googleusercontent.com/A5vdELALHUQZAZxckzyGrt3U-XpKI4bU8ypciYDIsr4ADIImy12rtnLYfBbWWrR4DNjlA_nmBOzojuouxkgzuAnzfLdBoXUbYVdP_HnS"},
{"guid":"5247c2ef95aa4ac697f186e08b6c5de6.16","title":"Pista da pattinaggio","coordinates":{"lat":"45.579074","lng":"9.162563"},"link":{"intel":"https://intel.ingress.com/intel?ll=45.579074,9.162563&z=16&pll=45.579074,9.162563","gmap":"https://google.com/maps/place/45.579074,9.162563"},"image":"https://lh3.googleusercontent.com/uTv3O3Ez7KUy2GFtT9qqjLK5i0p717dJv2wRpZGXTGQFm4ZqWDmdQXB-JJj9jlZc664IUxYYAFLiHrGfswL4sad-GA"},
{"guid":"7498e4ceb06c4b828f71850829636c18.16","title":"Altarino votivo alla Madonna - Paderno Dugnano","coordinates":{"lat":"45.57704","lng":"9.163614"},"link":{"intel":"https://intel.ingress.com/intel?ll=45.57704,9.163614&z=16&pll=45.57704,9.163614","gmap":"https://google.com/maps/place/45.57704,9.163614"},"image":"https://lh3.googleusercontent.com/Biu9CTkpoNfCmWnYUxebcZX6gYcCoCfK28nXruuvRERo95fF7lYKijzMNMAq9i-giXe_KN4FPKP6Np4wrtuYhZ4s970"},
{"guid":"562a7d12919d401096488ebb2f707873.16","title":"Inciran - Com'era...","coordinates":{"lat":"45.576805","lng":"9.162005"},"link":{"intel":"https://intel.ingress.com/intel?ll=45.576805,9.162005&z=16&pll=45.576805,9.162005","gmap":"https://google.com/maps/place/45.576805,9.162005"},"image":"https://lh3.googleusercontent.com/OU8PPpRnUqW4CTPxL9OuBPvYYlNiIQ49HSx6k5Itif6M9XgmLCK7z76ME7kvrsSZANaFEpIFa5QqiYRVLPawvy4lGnw"},
{"guid":"0bcfd5a27a0d44dda9cdcf3920e9a89a.16","title":"Villa Archinto Gargantini - Paderno Dugnano","coordinates":{"lat":"45.576874","lng":"9.162364"},"link":{"intel":"https://intel.ingress.com/intel?ll=45.576874,9.162364&z=16&pll=45.576874,9.162364","gmap":"https://google.com/maps/place/45.576874,9.162364"},"image":"https://lh3.googleusercontent.com/x7rOAwWj44azPH-Od6REFrUhbUt8Us5rSTbv869inTe1TppM7cTal_tL00MKwlUP0yameUPgFHzhRLtbcNbAMpj3Jjfc"},
{"guid":"dd28717851a54d3ea14bc3019dd001d2.16","title":"Affresco della Santissima Vergine Maria","coordinates":{"lat":"45.577107","lng":"9.16404"},"link":{"intel":"https://intel.ingress.com/intel?ll=45.577107,9.16404&z=16&pll=45.577107,9.16404","gmap":"https://google.com/maps/place/45.577107,9.16404"},"image":"https://lh3.googleusercontent.com/mBKIUaA9-e6eTmenny9_-PaMSsLA8n6CL10HMvN9SqsEdXVkpROf-p3gPx44uUhZuWtj0cbh2kw0eJ5RTu9PGh9uWRc"},
{"guid":"79eb7a4dae204c8abda4b363dd2e384a.16","title":"Parco Emilio De Marchi","coordinates":{"lat":"45.574749","lng":"9.163215"},"link":{"intel":"https://intel.ingress.com/intel?ll=45.574749,9.163215&z=16&pll=45.574749,9.163215","gmap":"https://google.com/maps/place/45.574749,9.163215"},"image":"https://lh3.googleusercontent.com/4ETA63ciimuB768epiXcusqfgrx3XoWuAEIyUmf5_d3mVkDVUpzz7iNP7twX6LiaxIln34sTwrP-IKFhz_riw57Sq6c"},
{"guid":"983f5658122545838dfacdcaf6160cb2.16","title":"Chiesa Maria Assunta","coordinates":{"lat":"45.574574","lng":"9.163421"},"link":{"intel":"https://intel.ingress.com/intel?ll=45.574574,9.163421&z=16&pll=45.574574,9.163421","gmap":"https://google.com/maps/place/45.574574,9.163421"},"image":"https://lh3.googleusercontent.com/IjMVGyajgyEGUmGvJPXfNES4ASsbEFzTGhLw0oUYtrue7Ck2ZOcR7AgJLDx812JQlvfpnAYtdt_E2bfnU14Ai0F5GD6X"},
{"guid":"6e3b8a6fd55b423eb4fec9ea7aa85e75.16","title":"Ai Caduti della Prima Guerra Mondiale - Paderno Dugnano","coordinates":{"lat":"45.574616","lng":"9.163471"},"link":{"intel":"https://intel.ingress.com/intel?ll=45.574616,9.163471&z=16&pll=45.574616,9.163471","gmap":"https://google.com/maps/place/45.574616,9.163471"},"image":"https://lh3.googleusercontent.com/2P2BkSNsChHvJMXKVk8qE3keipifX7x0WEBGXRsOqJjpuYgQIDkm4WX3m7jLintCLvMFrCXus4blSVSUCsrZPbm1cQ"},
{"guid":"4033572cfb32473784a5582c8489c984.16","title":"Villa Beretta Perabò Dozio - Incirano, Paderno Dugnano","coordinates":{"lat":"45.574958","lng":"9.163144"},"link":{"intel":"https://intel.ingress.com/intel?ll=45.574958,9.163144&z=16&pll=45.574958,9.163144","gmap":"https://google.com/maps/place/45.574958,9.163144"},"image":"https://lh3.googleusercontent.com/kNrugy-_4o0y1KV-XLQGTskMR0W8Azc9_4mjX1qR-B-g42xbhaRkdrlp3NX8hXRh4pOfJ77F7m5tS87CQuSV4jR51_M"},
{"guid":"6d9e73b8cf354b09992bc2bfa52257d1.16","title":"Officina della Cultura - A.P.S. Associazione Promozionale Sociale","coordinates":{"lat":"45.575926","lng":"9.162511"},"link":{"intel":"https://intel.ingress.com/intel?ll=45.575926,9.162511&z=16&pll=45.575926,9.162511","gmap":"https://google.com/maps/place/45.575926,9.162511"},"image":"https://lh3.googleusercontent.com/vxxh5to2tusouyaH1tnIySzgo51FHjBkQFE6Bnx6cOZv09v-gUv7CPNF1pKqFi6b_9FinIOZBEZPQkbjQsXlryqNL8I"},
{"guid":"0539595506734ad8ba3a2585e6738827.16","title":"Consorzio Acqua Potabile Comuni di Milano","coordinates":{"lat":"45.574097","lng":"9.164932"},"link":{"intel":"https://intel.ingress.com/intel?ll=45.574097,9.164932&z=16&pll=45.574097,9.164932","gmap":"https://google.com/maps/place/45.574097,9.164932"},"image":"https://lh3.googleusercontent.com/AUWWl0PWJlY3Kq1hXPAx6706veMK4QQOkFj8m1GzJoFJ7CInejWyGZ1Wovt8JKpJFLgUP-eUxi987iBfJmrxfoCTVg"},
{"guid":"da87e7adec3440b987a0123ffe5fccdb.16","title":"Tiny Feet on the Pavement","coordinates":{"lat":"45.576435","lng":"9.165787"},"link":{"intel":"https://intel.ingress.com/intel?ll=45.576435,9.165787&z=16&pll=45.576435,9.165787","gmap":"https://google.com/maps/place/45.576435,9.165787"},"image":"https://lh3.googleusercontent.com/TK__PlNQCStDulrTJUzhRkA8B-rkuYnk5lP8xxp8eIdOWRoIB3q0YQO3xe0mWLt74E-xqjitvQUZ9Doznk589vKhh64"},
{"guid":"d4b10f40123c487ba13f4ad8c87393d2.16","title":"Città di Paderno Dugnano - Mappa Storica","coordinates":{"lat":"45.577611","lng":"9.167792"},"link":{"intel":"https://intel.ingress.com/intel?ll=45.577611,9.167792&z=16&pll=45.577611,9.167792","gmap":"https://google.com/maps/place/45.577611,9.167792"},"image":"https://lh3.googleusercontent.com/8ikJ4zDs6oGNq1yJy41TSGmVL76BA9RZUF1QxNsPHmw1OlxC6eRX5h_C9wtgQsAnvx9YwQSHAR6EMqGkOR-sKzSAChA"},
{"guid":"6b65ed9b4e6337bb99232f48ab46bc10.16","title":"Parco Grugnotorto Villoresi","coordinates":{"lat":"45.577581","lng":"9.16824"},"link":{"intel":"https://intel.ingress.com/intel?ll=45.577581,9.16824&z=16&pll=45.577581,9.16824","gmap":"https://google.com/maps/place/45.577581,9.16824"},"image":"https://lh3.googleusercontent.com/N0DLS5jFibzjRZv-be9s5MXzZtssu6iGs-b66EOjoYyBsySDGH9MLnC0MHhZL7ajq5F-SXoEIXA2Rql6exnPXup9XRaztvzgiISDjyo"},
{"guid":"c6879e7b3d2d3659ba0493006b704c70.16","title":"Cartello - Mappa Parco GruBrià","coordinates":{"lat":"45.57605","lng":"9.168748"},"link":{"intel":"https://intel.ingress.com/intel?ll=45.57605,9.168748&z=16&pll=45.57605,9.168748","gmap":"https://google.com/maps/place/45.57605,9.168748"},"image":"https://lh3.googleusercontent.com/iTzrfxzWJNipXxFydmeisNZWGErqPMj-kiEvnewzJ2ovcpry4YddOsQcmdapk0lrfJ6OWaEYYQDbYSU-kg4yrmN4mAm1B-eWorQ4qe3g"},
{"guid":"6c83665bfa5d45ef90022a302efe63b0.16","title":"Parco giochi in Legno Incirano","coordinates":{"lat":"45.575527","lng":"9.16781"},"link":{"intel":"https://intel.ingress.com/intel?ll=45.575527,9.16781&z=16&pll=45.575527,9.16781","gmap":"https://google.com/maps/place/45.575527,9.16781"},"image":"https://lh3.googleusercontent.com/6NO9hlfUUAgDrwptMvYde6j9yeOQ03Q4v4WuFgNkFDHgyfBOVA5g8T8OnEMvHKzzZaSmnhhQ08nDequ6QXcQvoR1UQ"},
{"guid":"45dda1afb5b93fff99e2b0277ad438e6.16","title":"Meridiana del Convento","coordinates":{"lat":"45.579159","lng":"9.16843"},"link":{"intel":"https://intel.ingress.com/intel?ll=45.579159,9.16843&z=16&pll=45.579159,9.16843","gmap":"https://google.com/maps/place/45.579159,9.16843"},"image":"https://lh3.googleusercontent.com/9EFpXbpODaTcmks2hEOgQacKa3xeUEFOaqNw1BHBhKZSBngqRWQROcxsP-V1WJZNIagRFRCfupQjKC8XotI4UPRC2LCtxlNAZTDSEpUuCQ"},
{"guid":"3041590bffe24426acc66df1ee666e1d.16","title":"Colonna con Croce","coordinates":{"lat":"45.573921","lng":"9.163654"},"link":{"intel":"https://intel.ingress.com/intel?ll=45.573921,9.163654&z=16&pll=45.573921,9.163654","gmap":"https://google.com/maps/place/45.573921,9.163654"},"image":"https://lh3.googleusercontent.com/xWQBXqu-0GxJZTLPdXkkrpLJo84Rrz8grHIv9z-RGvTUVZwIKf6eRgOCdv1BqdfTEcC9jZNK2_5czi1agEr2vWmoCXN2"},
{"guid":"6204c346663c4ee4acd8f0ef4f3a19fd.16","title":"Pista d'atletica comunale - Paderno Dugnano","coordinates":{"lat":"45.572761","lng":"9.163081"},"link":{"intel":"https://intel.ingress.com/intel?ll=45.572761,9.163081&z=16&pll=45.572761,9.163081","gmap":"https://google.com/maps/place/45.572761,9.163081"},"image":"https://lh3.googleusercontent.com/AMvUHXyEy9FPPWCIeaPGvrd2X2UCDA_Kcd30NrBoiKaRP81-stMZUzuA1JumJy97m6HT3tyUPZD1DYESfFvufzfnmTK6"},
{"guid":"e723e353906445fd9c6fd55fc4911640.16","title":"Playground di Via Italia","coordinates":{"lat":"45.574188","lng":"9.16304"},"link":{"intel":"https://intel.ingress.com/intel?ll=45.574188,9.16304&z=16&pll=45.574188,9.16304","gmap":"https://google.com/maps/place/45.574188,9.16304"},"image":"https://lh3.googleusercontent.com/7E0oWAxtCS11AwwtlmxLTsGfre9wgHNylTbIb9U4DTFv_Yvf-_7YTZ3u4mwjdhw9BpELEylndFGyAF7tzein6gg__w"},
{"guid":"4020b4cacd4f4c8aa139d3529bcf4842.16","title":"Università della terza età","coordinates":{"lat":"45.57233","lng":"9.163118"},"link":{"intel":"https://intel.ingress.com/intel?ll=45.57233,9.163118&z=16&pll=45.57233,9.163118","gmap":"https://google.com/maps/place/45.57233,9.163118"},"image":"https://lh3.googleusercontent.com/mSXOhqSttEzIRhTUAPIyBp4UOhDQcwUqx-5ZlB-dzaW11AB_p-o2UUBaekWpgqy138gcamZMgWGpL4dwjC3uCqgy_w"},
{"guid":"0a7e481f72bb4cc3af12bb233307a9e3.16","title":"Percorso del Lago e delle Ville","coordinates":{"lat":"45.574431","lng":"9.169448"},"link":{"intel":"https://intel.ingress.com/intel?ll=45.574431,9.169448&z=16&pll=45.574431,9.169448","gmap":"https://google.com/maps/place/45.574431,9.169448"},"image":"https://lh3.googleusercontent.com/X2DkzsK9tAddzJBO2xsUbRepeChrrLhv1eCMGo5h6-CDDlen332-tXBn43tHBXPIbziXUnJL7Nh-cjih8UizzmHVmk0"},
{"guid":"b1b8b45a11153f66b05a9ebd779a5065.16","title":"Monumento alla Pace","coordinates":{"lat":"45.574626","lng":"9.168873"},"link":{"intel":"https://intel.ingress.com/intel?ll=45.574626,9.168873&z=16&pll=45.574626,9.168873","gmap":"https://google.com/maps/place/45.574626,9.168873"},"image":"https://lh3.googleusercontent.com/klkjWfTZiwmRowqVm8szlDC1eRFkig00hyCNcyn-4xSFGK-XDUO2d9y6SRMyJrHVnSQbwVuNOPln58CFbWEEyeNxPxDeEVEE8T147kk"},
{"guid":"a6843186d80f4e5bb6372f604839d53f.16","title":"Campo da calcio a 11 di Incirano","coordinates":{"lat":"45.575096","lng":"9.171609"},"link":{"intel":"https://intel.ingress.com/intel?ll=45.575096,9.171609&z=16&pll=45.575096,9.171609","gmap":"https://google.com/maps/place/45.575096,9.171609"},"image":"https://lh3.googleusercontent.com/gE4H7sjczznQlMZtgzyjvL82G37b51sjP5xGTNNqy_ewU130KbPVQHwkX7Kg9bkCjsJsY5fgpFF0CV-QtcVaBKDabJI"},
{"guid":"401f1a04995843fb9f143e5542067925.16","title":"Centro Cardinal Colombo","coordinates":{"lat":"45.575023","lng":"9.170673"},"link":{"intel":"https://intel.ingress.com/intel?ll=45.575023,9.170673&z=16&pll=45.575023,9.170673","gmap":"https://google.com/maps/place/45.575023,9.170673"},"image":"https://lh3.googleusercontent.com/nM3exm6q36vBSBaC-UDlpuS3FaQ20w6KNqPDgwp_JbJfL1UZtynG469FYXuAYLCrKm5cx0hZ5tGwWGPyDG1_szPEhY0"},
{"guid":"cb98345f63023d0786ab41d9c1d75e9b.16","title":"Acacia - Robinia Pseudoacacia L.","coordinates":{"lat":"45.573749","lng":"9.170079"},"link":{"intel":"https://intel.ingress.com/intel?ll=45.573749,9.170079&z=16&pll=45.573749,9.170079","gmap":"https://google.com/maps/place/45.573749,9.170079"},"image":"https://lh3.googleusercontent.com/_73o9m6LCxWWPq9jkbogpAJ7_J9vpV07nemGTYVRQJ5m5B0aTgu6s8tArnKJ9N0vopJ5A4h9NKO7RhfLMOwYugDXzdMWdSj5yCIRIYna"},
{"guid":"7b7a0db9cf284fc48a5efabe274664b0.16","title":"Madonnina Dell'Oratorio San Luigi di Incirano","coordinates":{"lat":"45.575312","lng":"9.172078"},"link":{"intel":"https://intel.ingress.com/intel?ll=45.575312,9.172078&z=16&pll=45.575312,9.172078","gmap":"https://google.com/maps/place/45.575312,9.172078"},"image":"https://lh3.googleusercontent.com/47eA8iM0oi-sW9PsgKevVbcRcqpj03ekjhJbNdFMIBXg2F6c16KitauP6EL9UOyI69rl0Nk8uaJcvw_TYZSobPKABQ"},
{"guid":"443b129b7e0d33828984f93b53e7095f.16","title":"Parco Grubrià","coordinates":{"lat":"45.575276","lng":"9.17285"},"link":{"intel":"https://intel.ingress.com/intel?ll=45.575276,9.17285&z=16&pll=45.575276,9.17285","gmap":"https://google.com/maps/place/45.575276,9.17285"},"image":"https://lh3.googleusercontent.com/6qalLJEUxu0JAmWHunlNAKUz5VLTcysYxgLe2gcnn0efLE92tiV-KG6-tqCZ_Ef6YTLZ_RcgZEoAdVfigQePVKD6mLvrHYxiLr-RLxO7TQ"},
{"guid":"0a24acfb4b934402928633c5d3bdf15e.16","title":"Oratorio S. Luigi Incirano","coordinates":{"lat":"45.574986","lng":"9.171034"},"link":{"intel":"https://intel.ingress.com/intel?ll=45.574986,9.171034&z=16&pll=45.574986,9.171034","gmap":"https://google.com/maps/place/45.574986,9.171034"},"image":"https://lh3.googleusercontent.com/KNiFVP0IqUq52Et3dApHMRQMoOFqNLN8COOV9LPIk7YmuKXiy0MrSAjxqVuPvaG53IhaM2Gg2fff9cHWXcN3-BQAJeo"},
{"guid":"e02bc08afd3142e2bcc1377b5f6e8656.16","title":"Percorso Vita: Tappa 12 - Parco Toti","coordinates":{"lat":"45.573846","lng":"9.17236"},"link":{"intel":"https://intel.ingress.com/intel?ll=45.573846,9.17236&z=16&pll=45.573846,9.17236","gmap":"https://google.com/maps/place/45.573846,9.17236"},"image":"https://lh3.googleusercontent.com/bi68xlb3xr9DRxIdXQXD9um1sG7Tt-uDH1nuRGOOjuk3aOKkbkcmx7qe0qbQ3Yc5prkY43_qy0ZFl6NI__NV4wYGrO8"},
{"guid":"f33afa8d100731be961a40f72f6fd3e1.16","title":"Rifugio Millepiedi in Legno","coordinates":{"lat":"45.573788","lng":"9.170892"},"link":{"intel":"https://intel.ingress.com/intel?ll=45.573788,9.170892&z=16&pll=45.573788,9.170892","gmap":"https://google.com/maps/place/45.573788,9.170892"},"image":"https://lh3.googleusercontent.com/9XRXMXKNZjiCGfdsJwFevQJPXmiAeO1iyO4ALKXAOA0JN4lDj3w2fAwIGIN8sAK0y04GsHCKSHZN0rn4av0yrolQ2vNKHQAoexy-Jh0"},
{"guid":"f8f678acc8a0496297d82b229775e24a.16","title":"Parco Grugnotorto Villoresi e Brianza Centrale","coordinates":{"lat":"45.578434","lng":"9.171495"},"link":{"intel":"https://intel.ingress.com/intel?ll=45.578434,9.171495&z=16&pll=45.578434,9.171495","gmap":"https://google.com/maps/place/45.578434,9.171495"},"image":"https://lh3.googleusercontent.com/-B8FBg-qXJPJxly_OPwcg8hcsFvA6a9T26spE-b9b4yKOcHO7HhTtcaGevKuJRFZNiD6TwRQd-EUtxai1xOMp_alOA"},
{"guid":"685f208315f14cb49e8f08c5de391303.16","title":"Pista di Pattinaggio - Parco lago Nord","coordinates":{"lat":"45.576566","lng":"9.17706"},"link":{"intel":"https://intel.ingress.com/intel?ll=45.576566,9.17706&z=16&pll=45.576566,9.17706","gmap":"https://google.com/maps/place/45.576566,9.17706"},"image":"https://lh3.googleusercontent.com/l2iC_9yRbE2vcBAYfhTYEkXwvRmsyAPzbTUG-cMQwWBZubs2GYBdjVrw-fEc7i7EyX4m_68-KIpQZG5XoyOemGT0Z9E"},
{"guid":"31986152828f475bbf035fc051316f1a.16","title":"Percorso Vita - Tappa 13","coordinates":{"lat":"45.576213","lng":"9.178113"},"link":{"intel":"https://intel.ingress.com/intel?ll=45.576213,9.178113&z=16&pll=45.576213,9.178113","gmap":"https://google.com/maps/place/45.576213,9.178113"},"image":"https://lh3.googleusercontent.com/JsaARCBVfMR302OeEdLqW0_jYK2CigjQWFACZYS3M9JSMt18j0j2GRX0rHcCQcgaUxcKX6W0-t3pYfqvheXnUIZoc4A"},
{"guid":"c7490fd96d64355a85a58afb9f51bf35.16","title":"Luccio - Cartello informativo","coordinates":{"lat":"45.577","lng":"9.178021"},"link":{"intel":"https://intel.ingress.com/intel?ll=45.577,9.178021&z=16&pll=45.577,9.178021","gmap":"https://google.com/maps/place/45.577,9.178021"},"image":"https://lh3.googleusercontent.com/L46KWHlsdxgTv7lWdzNwuSzrNuWBqPJb_l_p1t-FFHF7AibOAPeCHEnOJszRSZ5A-HzbWu3LIY1cbKqIMkKz_eu18MTq92s9eZbe_icg"},
{"guid":"989ba9a6e9b64c8f883a0746079affa5.16","title":"Carpodromo - Pesca al Rilascio","coordinates":{"lat":"45.577354","lng":"9.177509"},"link":{"intel":"https://intel.ingress.com/intel?ll=45.577354,9.177509&z=16&pll=45.577354,9.177509","gmap":"https://google.com/maps/place/45.577354,9.177509"},"image":"https://lh3.googleusercontent.com/WcoRNmGQnkkKImkkyc0ZHRdriLELkPFz-mUUP2EvSxawb4D4z2085l2gYoAz0QBV6TOLAcgy8DYtvIR8fRgBfRzvvg"},
{"guid":"490cb3809fab4309824c48ba13170702.16","title":"Percorso Vita - Tappa 11","coordinates":{"lat":"45.575992","lng":"9.178948"},"link":{"intel":"https://intel.ingress.com/intel?ll=45.575992,9.178948&z=16&pll=45.575992,9.178948","gmap":"https://google.com/maps/place/45.575992,9.178948"},"image":"https://lh3.googleusercontent.com/I-h0IZsWzgxlF3Aw0gNq-ZUTf1GgZg0_OKdLZTh9nnTtBAGsGsiLTMpH0MqsOnQDRthJAMukYQNfHmhDGUr3ayKc2-Y"},
{"guid":"6ad14e2bd55c3a31928f1102813ce9da.16","title":"Cartello Informativo - I rettili","coordinates":{"lat":"45.577078","lng":"9.176722"},"link":{"intel":"https://intel.ingress.com/intel?ll=45.577078,9.176722&z=16&pll=45.577078,9.176722","gmap":"https://google.com/maps/place/45.577078,9.176722"},"image":"https://lh3.googleusercontent.com/hCvMYsfumj3cyxYQ333eV9Fs1wHJPnKiZ8KLWIPZHhm5fwBKrKfLRgm-jukwJPsq_5svlkDCdxkV-au5SK16URbM0nemTKEKCYtBDe0"},
{"guid":"f00dee9b34aa4f36baac0b569e05d202.16","title":"Percorso Vita - Tappa 12","coordinates":{"lat":"45.575839","lng":"9.178542"},"link":{"intel":"https://intel.ingress.com/intel?ll=45.575839,9.178542&z=16&pll=45.575839,9.178542","gmap":"https://google.com/maps/place/45.575839,9.178542"},"image":"https://lh3.googleusercontent.com/lZXWejm5eQEZy73y6VfYVk5uDKzCg6dnhhhxEac9CCZbR81kwB-QTF7fRFBViMTQrWmxX54ppz77wHwwkcmvjxsqUYo"},
{"guid":"00e84c42b5d94cdfa1f42037c9c52626.16","title":"Memorial Totem","coordinates":{"lat":"45.577294","lng":"9.179275"},"link":{"intel":"https://intel.ingress.com/intel?ll=45.577294,9.179275&z=16&pll=45.577294,9.179275","gmap":"https://google.com/maps/place/45.577294,9.179275"},"image":"https://lh3.googleusercontent.com/ImfoYnPOWxFbJBYpI8yX3YWd7dCM-s851DGXbovloJdJy2hFa6hxv7EGirL--PRP9txO-bKlRfLELOanq_pqKJeaZzg"},
{"guid":"007c42842fd23813988a9266ab6d9f10.16","title":"Il Bosco - Cartello Informativo","coordinates":{"lat":"45.577593","lng":"9.176892"},"link":{"intel":"https://intel.ingress.com/intel?ll=45.577593,9.176892&z=16&pll=45.577593,9.176892","gmap":"https://google.com/maps/place/45.577593,9.176892"},"image":"https://lh3.googleusercontent.com/kWaxfE1f81rWYBi5Z0bUOWmZl0dwrbhUgVetgmAZgtJPJBqYtuOVzzBTF5BapSdn6kPFwpuQonq0wgsSYgLlvL21PrzwwmZ4oUg0Q14"},
{"guid":"90b8c92197684a268a3f04df82d5d824.16","title":"Percorso del Lago e delle Ville - Paderno Dugnano","coordinates":{"lat":"45.576555","lng":"9.17657"},"link":{"intel":"https://intel.ingress.com/intel?ll=45.576555,9.17657&z=16&pll=45.576555,9.17657","gmap":"https://google.com/maps/place/45.576555,9.17657"},"image":"https://lh3.googleusercontent.com/pDYNFTZpIsVU2deUKBXirInrJ8VFoHC2tTCmBJUoVu5JDiUMe97Hp44TPymilKaI9APhJuMHHP-TXGnGSnHsvcVl92A"},
{"guid":"6e51bd5e637b48708cf660abbb969b8d.16","title":"Area Gioco per Bambini - Parco Lago Nord","coordinates":{"lat":"45.576759","lng":"9.177198"},"link":{"intel":"https://intel.ingress.com/intel?ll=45.576759,9.177198&z=16&pll=45.576759,9.177198","gmap":"https://google.com/maps/place/45.576759,9.177198"},"image":"https://lh3.googleusercontent.com/DR8GXScgo5TeO4IzesX7rLlgsEOLCs8Cocw__bACdbuj9xbYXHJZ5z81rAJaMxwo5-3aqNCBdr-a6l7NYubQUsBUUrk"},
{"guid":"bbba60ba6e7d44eb8500814e6a31f14b.16","title":"Ponte di legno d’accesso al Parco","coordinates":{"lat":"45.576429","lng":"9.175916"},"link":{"intel":"https://intel.ingress.com/intel?ll=45.576429,9.175916&z=16&pll=45.576429,9.175916","gmap":"https://google.com/maps/place/45.576429,9.175916"},"image":"https://lh3.googleusercontent.com/_xQBDBVzPlZ5HuyecM-Xhhx8n2MQSGG2rDIo6mrnQNuCWi_M86ETq1fjzPrgm8As2j5VSOyvECjEEizbgv_Y1lkLVA"},
{"guid":"2a524e6f3c154139a21665189713f2b9.16","title":"Parco Lago Nord - Ingresso Ovest","coordinates":{"lat":"45.576372","lng":"9.175602"},"link":{"intel":"https://intel.ingress.com/intel?ll=45.576372,9.175602&z=16&pll=45.576372,9.175602","gmap":"https://google.com/maps/place/45.576372,9.175602"},"image":"https://lh3.googleusercontent.com/w6N0ZZjX_laIY6K-Dbo6WfgUhzZyTw6NaVLESzL767bjVjhshnBv4xkR-8zepjQv17IVTIlObkF3I26wgqr5P1xntsQ"},
{"guid":"0ec5c7187e2e44bebfdefd5959ae7262.16","title":"Parco GruBrìa","coordinates":{"lat":"45.576335","lng":"9.175507"},"link":{"intel":"https://intel.ingress.com/intel?ll=45.576335,9.175507&z=16&pll=45.576335,9.175507","gmap":"https://google.com/maps/place/45.576335,9.175507"},"image":"https://lh3.googleusercontent.com/X6sy9RW-AYqDkWj_csFwhiPSI3a3lSlxADfPf1mcmXehZV9GwRQw-YKNIweYUwqapQ0oY770Ecgkx179UeRrAYeD9B4"},
{"guid":"b1eb27d2ae723ef88758969625dbc0d8.16","title":"Inizio del Percorso Salute","coordinates":{"lat":"45.577163","lng":"9.17635"},"link":{"intel":"https://intel.ingress.com/intel?ll=45.577163,9.17635&z=16&pll=45.577163,9.17635","gmap":"https://google.com/maps/place/45.577163,9.17635"},"image":"https://lh3.googleusercontent.com/GJo-urlX5Nkbawj27M4_24u4bi3xVQzadtmWgMPg0O2EL1OXEAStDOucRTR9tAe85PJOe9Af4N4jXFMpocRlloFvHepz7L5-KhDCfapN"},
{"guid":"8313f09baa5840d6b49e97360f83ca2f.16","title":"Bacheca Informativa - Parco Lago Nord","coordinates":{"lat":"45.576114","lng":"9.174951"},"link":{"intel":"https://intel.ingress.com/intel?ll=45.576114,9.174951&z=16&pll=45.576114,9.174951","gmap":"https://google.com/maps/place/45.576114,9.174951"},"image":"https://lh3.googleusercontent.com/SLBSRqsLgHRYNNwbU7jDDfbEqqxzz5TuuP5EZ6x6dhDAqFiSlbbH1y5DzcJ61cXsVhgpoRBqus43CHED0BrYMGhQTVHj"},
{"guid":"fc53b07a7e143893a983af255a2aecaa.16","title":"Placca \"Radici del futuro\"","coordinates":{"lat":"45.575883","lng":"9.174137"},"link":{"intel":"https://intel.ingress.com/intel?ll=45.575883,9.174137&z=16&pll=45.575883,9.174137","gmap":"https://google.com/maps/place/45.575883,9.174137"},"image":"https://lh3.googleusercontent.com/zYrJ8NLzvchkFeMZ0iAbGffEbZf51pEmBbKKB5oubfri_wgxJCW2uND7FxW-SYzI0Ruznp0spJtN-1VOvANYMzhIPL8O80MrbNGT8euT"},
{"guid":"96228625562f40b7b150d685a311db6f.16","title":"Veliero in Costruzione","coordinates":{"lat":"45.574613","lng":"9.173499"},"link":{"intel":"https://intel.ingress.com/intel?ll=45.574613,9.173499&z=16&pll=45.574613,9.173499","gmap":"https://google.com/maps/place/45.574613,9.173499"},"image":"https://lh3.googleusercontent.com/RqFxUY1qQd7QP29tr9Xdj9xpao9PWMA4ixPZS3b7nCtTZnwqPDEL0qNGKj8Wcf7VuSga3dpClNv53e6h35RscYH67Y0"},
{"guid":"94203687dde948a08b4ada87669d2af0.16","title":"Set esercizi Atletica Parco Toti","coordinates":{"lat":"45.573687","lng":"9.172969"},"link":{"intel":"https://intel.ingress.com/intel?ll=45.573687,9.172969&z=16&pll=45.573687,9.172969","gmap":"https://google.com/maps/place/45.573687,9.172969"},"image":"https://lh3.googleusercontent.com/hpRlHhqbsX1ACsYRuT8raepWyfx-mdC69sjAgclydUl4xv1GN6HyRH9xmC8GUFkGZCiTYmm39e7402fOPQ2yyiy7yoM"},
{"guid":"b779390f364442f890c282308043e353.16","title":"Torre di Vedetta della Ciurma del Sole","coordinates":{"lat":"45.574508","lng":"9.172716"},"link":{"intel":"https://intel.ingress.com/intel?ll=45.574508,9.172716&z=16&pll=45.574508,9.172716","gmap":"https://google.com/maps/place/45.574508,9.172716"},"image":"https://lh3.googleusercontent.com/S9FkSRit6pAp3ufyuTPfSGlmXrzflyJdNOz4jFot0YMtL_32sGjULJJL9BucAg8EntQSAWt1mQ32uqbBNyw4oLKs-w"},
{"guid":"10973182d22a4791b014ef046e671df6.16","title":"Teleferica di Arrembaggio","coordinates":{"lat":"45.574092","lng":"9.173191"},"link":{"intel":"https://intel.ingress.com/intel?ll=45.574092,9.173191&z=16&pll=45.574092,9.173191","gmap":"https://google.com/maps/place/45.574092,9.173191"},"image":"https://lh3.googleusercontent.com/BwiyDRDva4priw9eKdSsbMOK2rG65JIaad1XI9Pa_Uf5sxeG5yK99m8QpiB1SwN79dfpXDk1nTO6Xhek3J7eH-FvPVQ"},
{"guid":"fbd21607d8fb4e788d348764c8afa778.16","title":"Pista di Atletica Parco Toti","coordinates":{"lat":"45.573512","lng":"9.173364"},"link":{"intel":"https://intel.ingress.com/intel?ll=45.573512,9.173364&z=16&pll=45.573512,9.173364","gmap":"https://google.com/maps/place/45.573512,9.173364"},"image":"https://lh3.googleusercontent.com/rQ9BBLrF0jKGbAjVkAZ1WU25BzjHCf2m6fyLAjjGUyYRZTytQ66QfrSr6YddD1m2dVmei5nZJ4TfAola8amQNv-Ql8Y"},
{"guid":"f33bbed5102f4e19a1c9cfc9c68cf11c.16","title":"Percorso Vita: Tappa 11 - Parco Toti","coordinates":{"lat":"45.574311","lng":"9.174235"},"link":{"intel":"https://intel.ingress.com/intel?ll=45.574311,9.174235&z=16&pll=45.574311,9.174235","gmap":"https://google.com/maps/place/45.574311,9.174235"},"image":"https://lh3.googleusercontent.com/GX_ykIkKKhRlS4RAk_D18M11msw0S0F2JjTbXTqR9w5bvNG7yvLY4iTB3v_AeR_7g6K2CUc_8npByrb8oXUkep_qsYpa"},
{"guid":"52b837dc607f4aefb942d55a5e10170c.16","title":"Percorso Vita: Tappa 6 - Parco Toti","coordinates":{"lat":"45.573418","lng":"9.175197"},"link":{"intel":"https://intel.ingress.com/intel?ll=45.573418,9.175197&z=16&pll=45.573418,9.175197","gmap":"https://google.com/maps/place/45.573418,9.175197"},"image":"https://lh3.googleusercontent.com/W3x0AvitBsGSLE1fTW5C4Y5YEPfQq7ahLFD3LFVSVTbtgsiHJcpClW0uhploj9SakfC8nkC2CQ7DDeW_8QJ7I0CGKPWQ"},
{"guid":"dd89b3e28ebc47119389f33e5b5da67e.16","title":"Percorso Vita: Tappa 10 - Parco Toti","coordinates":{"lat":"45.574148","lng":"9.174559"},"link":{"intel":"https://intel.ingress.com/intel?ll=45.574148,9.174559&z=16&pll=45.574148,9.174559","gmap":"https://google.com/maps/place/45.574148,9.174559"},"image":"https://lh3.googleusercontent.com/ulU-B89EEB8WoX9iNG5UFn31FFM2S6sQ-t9UaODp4OaSjIlskR4zwGE1LogVRH6c_IyJ69yuuxSrfH8JUfr24ZQ7a03I"},
{"guid":"9561fa42086f4c348f5930b06f954a12.16","title":"Prigione delle Ciurma del Sole","coordinates":{"lat":"45.574527","lng":"9.173188"},"link":{"intel":"https://intel.ingress.com/intel?ll=45.574527,9.173188&z=16&pll=45.574527,9.173188","gmap":"https://google.com/maps/place/45.574527,9.173188"},"image":"https://lh3.googleusercontent.com/RLumZQmYMpFFrRJdgvkCtUVtSA2OmLtHee1YEqLxoLvM6snNGu__71zEiteOj7nC7wAFVtwYiP3Fe0z8YN45kbr0Gg"},
{"guid":"24518aabd68d4d81b4172938699f4e78.16","title":"Rifugio Pirata","coordinates":{"lat":"45.574714","lng":"9.173057"},"link":{"intel":"https://intel.ingress.com/intel?ll=45.574714,9.173057&z=16&pll=45.574714,9.173057","gmap":"https://google.com/maps/place/45.574714,9.173057"},"image":"https://lh3.googleusercontent.com/1IT0y7rbzSOdtQkKdqA9LA5eyqf7IpQGcEp7_BUeikJyGooVjtU7vVui94qzRjyo-82UT0VkwiBu8-z5ifzlfrGNhmE"},
{"guid":"834a91f95d2349a5a88d8569bb9d7012.16","title":"Percorso Vita: Tappa 7 - Parco Toti","coordinates":{"lat":"45.573749","lng":"9.175007"},"link":{"intel":"https://intel.ingress.com/intel?ll=45.573749,9.175007&z=16&pll=45.573749,9.175007","gmap":"https://google.com/maps/place/45.573749,9.175007"},"image":"https://lh3.googleusercontent.com/9rk9bbVhcYjA2xtj1UGU3m3KribDgtkwEILtohvw89-uR2hurbI5tZFD_YuTuw2FNgHvIEEv3r4T4gwPnijVNTygn_4"},
{"guid":"8efa1bd6c3e237b6b778e9a260a57b55.16","title":"Area allenamento - Attrezzi per rinforzamento","coordinates":{"lat":"45.574486","lng":"9.174781"},"link":{"intel":"https://intel.ingress.com/intel?ll=45.574486,9.174781&z=16&pll=45.574486,9.174781","gmap":"https://google.com/maps/place/45.574486,9.174781"},"image":"https://lh3.googleusercontent.com/fuHi3leGU8BnUAYKFpa-sade6YOLC3p7GxhM6EeLAwJVBUo0Tu9Kv60bo8LwqMv-KcpZ_ATnPJmnDE9JjrIaph2mMDfgR6tnL2qKyMAn"},
{"guid":"83258ee53e254f638d499b2766edf7bf.16","title":"Infopoint Parco Toti","coordinates":{"lat":"45.575374","lng":"9.173303"},"link":{"intel":"https://intel.ingress.com/intel?ll=45.575374,9.173303&z=16&pll=45.575374,9.173303","gmap":"https://google.com/maps/place/45.575374,9.173303"},"image":"https://lh3.googleusercontent.com/Pm3si0pVNbd97o6-XUPUz7VsdHg-82WtxwIqRu1AvcrP5ekjK3tASjKOayfXyI1OoV26diYxURFoaYU_tSZWig_LtRY4"},
{"guid":"c03edcc5cf534ff28e515c27dab264f2.16","title":"InfoPercorsi Parco Toti","coordinates":{"lat":"45.574053","lng":"9.173304"},"link":{"intel":"https://intel.ingress.com/intel?ll=45.574053,9.173304&z=16&pll=45.574053,9.173304","gmap":"https://google.com/maps/place/45.574053,9.173304"},"image":"https://lh3.googleusercontent.com/daoR5_NK5pS_37Jj6im0cG2Bg5e2UrHYc4KOFUxj7YV1LLI16HckHPp3dyueWzfpHAZOGRh9eBlqC6I3cV8yPtfhfw"},
{"guid":"dcc6bc34df894dc6ae438293e8040e57.16","title":"Veliero del Sole","coordinates":{"lat":"45.57427","lng":"9.173435"},"link":{"intel":"https://intel.ingress.com/intel?ll=45.57427,9.173435&z=16&pll=45.57427,9.173435","gmap":"https://google.com/maps/place/45.57427,9.173435"},"image":"https://lh3.googleusercontent.com/Rg3wc_J6Foo84GoAYFQuyj_eAk43R_mkYi1EVKMe5U8JRiFazt1uWmd1tH5_CR4k73WBRR_m7irktw6D-boSenafprk3"},
{"guid":"17b480871730481ebef206bcf90fae63.16","title":"Veliero Dirottato","coordinates":{"lat":"45.574033","lng":"9.172602"},"link":{"intel":"https://intel.ingress.com/intel?ll=45.574033,9.172602&z=16&pll=45.574033,9.172602","gmap":"https://google.com/maps/place/45.574033,9.172602"},"image":"https://lh3.googleusercontent.com/vndUEzUC_upns4aVmVnfmqmYTlkTpXJr9Mo7ktZR9SbwlqBkcLIP7HfNDZ6RHXWT3F1WHpH3Bt-Fc0JMN-grSdQDF1I"},
{"guid":"989c1fa73bc744bfab55bb6f28486d49.16","title":"Percorso Vita: Tappa 9 - Parco Toti","coordinates":{"lat":"45.574012","lng":"9.174891"},"link":{"intel":"https://intel.ingress.com/intel?ll=45.574012,9.174891&z=16&pll=45.574012,9.174891","gmap":"https://google.com/maps/place/45.574012,9.174891"},"image":"https://lh3.googleusercontent.com/-hN01zWQXXnq1S-R_sozdNQXbEb71i_oMZ8SHtf-8iMN_3F34pAT0oa6bkmiFHp_dTLeV_Wy444Yiv2Fxh-lcgnBxXZG"},
{"guid":"f9d48b87420d4884b6fd3a235c1d0ceb.16","title":"Percorso Vita: Tappa 8 - Parco Toti","coordinates":{"lat":"45.573854","lng":"9.174614"},"link":{"intel":"https://intel.ingress.com/intel?ll=45.573854,9.174614&z=16&pll=45.573854,9.174614","gmap":"https://google.com/maps/place/45.573854,9.174614"},"image":"https://lh3.googleusercontent.com/jqo--KKrM7qXU4wAe-BL8vluHK2uyXD0YEqnH65qtHqesQFPig2-wrVQYxJ1lUcumHxpy1dsqSQ4KGmPEcADH2RnsVjU"},
{"guid":"689c4ab97ed243b3af449c0fe3648ec4.16","title":"Bocciofila Parco Toti","coordinates":{"lat":"45.571819","lng":"9.173378"},"link":{"intel":"https://intel.ingress.com/intel?ll=45.571819,9.173378&z=16&pll=45.571819,9.173378","gmap":"https://google.com/maps/place/45.571819,9.173378"},"image":"https://lh3.googleusercontent.com/xWG6gqO4L8kXjD2mG_Hw7ep8bmrkaWMJ4VVRitQbdf3wKGHYVy_G4ZTYBw8AiKxSFktpNiTnRxDqmsqoWGDyDc8z4g"},
{"guid":"9ada1b2f1a5949a18cada58738563a31.16","title":"Postazione del Lancio del Peso","coordinates":{"lat":"45.572613","lng":"9.174468"},"link":{"intel":"https://intel.ingress.com/intel?ll=45.572613,9.174468&z=16&pll=45.572613,9.174468","gmap":"https://google.com/maps/place/45.572613,9.174468"},"image":"https://lh3.googleusercontent.com/jvxq8331A_Lctdwy_yR4qjsPK4m9Q9ZQDQNztejM2awH_H6Jm8cTw-Gy4I6OzQN51HMN6Mb1CHqfIPI1kZ4vvN4NVoS5"},
{"guid":"6cd49c68cd11494988b545b10090c93a.16","title":"Murales alla Cittá di Paderno","coordinates":{"lat":"45.572489","lng":"9.172218"},"link":{"intel":"https://intel.ingress.com/intel?ll=45.572489,9.172218&z=16&pll=45.572489,9.172218","gmap":"https://google.com/maps/place/45.572489,9.172218"},"image":"https://lh3.googleusercontent.com/2j-mRwxefc9GhbGQfqP7UsCMyBDmX7zWk_PzO-1moKfGpcOOptmB5qe5h1OdDK5pBJARAzuvkHQ-0j5BpGtU5C_LlQI"},
{"guid":"bab71e8f744d48668a72f543e4839ff1.16","title":"Pista Pattinaggio Toti Paderno","coordinates":{"lat":"45.571906","lng":"9.172375"},"link":{"intel":"https://intel.ingress.com/intel?ll=45.571906,9.172375&z=16&pll=45.571906,9.172375","gmap":"https://google.com/maps/place/45.571906,9.172375"},"image":"https://lh3.googleusercontent.com/NifOtpkb8d7ZjNUms5xoUoGkg_dy_ERg4kDE5esVYcA5TNkD0HFqaQ8f9n6wcQoobOJc5if819jZ-FgoubzQjLRhM7E"},
{"guid":"9e997a26ef324d4c9dc5d52cdcd8daaa.16","title":"Centro Sportivo con Area Ristoro","coordinates":{"lat":"45.571909","lng":"9.172852"},"link":{"intel":"https://intel.ingress.com/intel?ll=45.571909,9.172852&z=16&pll=45.571909,9.172852","gmap":"https://google.com/maps/place/45.571909,9.172852"},"image":"https://lh3.googleusercontent.com/iAVooSQuo1zFTztdc6KsVc7ygnnBTz3sbD3G9Ufz_BVvZOH9oXXenRHUms4YjrsFLam0FpYswuKXpw2e6h5eMER9R3Jw"},
{"guid":"81b3a4dc61934bb88ef8ca21daf1cc4e.16","title":"Cartello area gioco bimbi","coordinates":{"lat":"45.572876","lng":"9.173122"},"link":{"intel":"https://intel.ingress.com/intel?ll=45.572876,9.173122&z=16&pll=45.572876,9.173122","gmap":"https://google.com/maps/place/45.572876,9.173122"},"image":"https://lh3.googleusercontent.com/4MP6eJBHckpU8jpnnaGDjSGVgYlmOQlaR_FcJ6pO4cpNNvi6SX5VxtxIjdsBLT-QE7vhX5s2dbAMlBB5VYc4j9kErQ"},
{"guid":"e9f19fe7f46b4f8b8863897f5cc66ca9.16","title":"Cartello Informativo del Parco","coordinates":{"lat":"45.572978","lng":"9.17276"},"link":{"intel":"https://intel.ingress.com/intel?ll=45.572978,9.17276&z=16&pll=45.572978,9.17276","gmap":"https://google.com/maps/place/45.572978,9.17276"},"image":"https://lh3.googleusercontent.com/rOcLarWxgVargg8n5q3gRXVisXqQGUvS7bOU-soqZA4Uh5u8uC-QPl3rFm_M-3fV0GkAQqYmiZB_wlRBjt_q10uijQ"},
{"guid":"83d03433d1bc432e861a667629530b08.16","title":"Campo Da Basket Parco Toti","coordinates":{"lat":"45.571632","lng":"9.174245"},"link":{"intel":"https://intel.ingress.com/intel?ll=45.571632,9.174245&z=16&pll=45.571632,9.174245","gmap":"https://google.com/maps/place/45.571632,9.174245"},"image":"https://lh3.googleusercontent.com/Mj9i9vIGkjJMcTJugBucwmwx1KgSGeamkGdUihqvhkioftDpgVXxM0fiFdSr6Lf_un_Lc7S_QCfhUn5SN1YEy1dLDnU"},
{"guid":"d67fef289f6847e38f29df42aa010735.16","title":"Playground con Cavallini e Altalena","coordinates":{"lat":"45.572576","lng":"9.173075"},"link":{"intel":"https://intel.ingress.com/intel?ll=45.572576,9.173075&z=16&pll=45.572576,9.173075","gmap":"https://google.com/maps/place/45.572576,9.173075"},"image":"https://lh3.googleusercontent.com/__z5xP4xq3lxVs27nfzNGCpuwqRM_MOxTir0oumTuSIJK-ohIcu5BG1_qOqtSUa0pLXPWuTiZsQ87266Fvyo_L_GeA"},
{"guid":"d5d48727247d434c99bea253e33ac927.16","title":"Area Giochi Parco Toti","coordinates":{"lat":"45.572778","lng":"9.172919"},"link":{"intel":"https://intel.ingress.com/intel?ll=45.572778,9.172919&z=16&pll=45.572778,9.172919","gmap":"https://google.com/maps/place/45.572778,9.172919"},"image":"https://lh3.googleusercontent.com/v1MbghBOKmIp5RQ4Ykrg3WWKjrbRZQ3muiTARzZqjNuqf-lCcT4Zwg35FinNPHkMfiKFT3_8V_oiEDfs193Q8fZW9A"},
{"guid":"3016d37df3b549d0b066ea092f535dab.16","title":"Stadio Comunale del Parco Toti di Paderno Dugnano","coordinates":{"lat":"45.5731","lng":"9.173268"},"link":{"intel":"https://intel.ingress.com/intel?ll=45.5731,9.173268&z=16&pll=45.5731,9.173268","gmap":"https://google.com/maps/place/45.5731,9.173268"},"image":"https://lh3.googleusercontent.com/ihjRyRHXI7rA38FJBUvJ5vLw5oJPkNcAnWVqYTbVcIfyxPTrYs8FN9qesRwFA9k4sY_a5P_Uhe6Sn3sN55A1FtMp2duW"},
{"guid":"ccdbbce6d9c845f488648e8ab05a20ae.16","title":"Campo da Calcio a 11 del Parco Toti","coordinates":{"lat":"45.572597","lng":"9.173815"},"link":{"intel":"https://intel.ingress.com/intel?ll=45.572597,9.173815&z=16&pll=45.572597,9.173815","gmap":"https://google.com/maps/place/45.572597,9.173815"},"image":"https://lh3.googleusercontent.com/0Hnfd_u_noHkpAqLh-8y49PUxFIAeSZ4uILgMhq2xhef48W3IOJ-n7MqQJm9jcxdZux6Zp0NDgKy0DOT6SrzLoBAcA"},
{"guid":"d35d22e7fadd4e2397e3d0c43fc28589.16","title":"Postazione del Salto in Lungo - Parco Toti","coordinates":{"lat":"45.572907","lng":"9.17376"},"link":{"intel":"https://intel.ingress.com/intel?ll=45.572907,9.17376&z=16&pll=45.572907,9.17376","gmap":"https://google.com/maps/place/45.572907,9.17376"},"image":"https://lh3.googleusercontent.com/r5I4f8qfi7nuXa9xD61wpi5381h7NiZ-3Dzo4uMUTokjLFZQX_531qUSOwpajufDf71_HDlH5lWL32dEmYKpjyFFJ-8"},
{"guid":"91d338a307d64474a9bbee56ecbe80ae.16","title":"Percorso Vita: Tappa 5 - Parco Toti","coordinates":{"lat":"45.573057","lng":"9.175078"},"link":{"intel":"https://intel.ingress.com/intel?ll=45.573057,9.175078&z=16&pll=45.573057,9.175078","gmap":"https://google.com/maps/place/45.573057,9.175078"},"image":"https://lh3.googleusercontent.com/xiZSgNpRrlMkwzdyJeCfWukuIxGzkvxo_Hjc6FpUav2C7Rcx5JZ6elyOajMtgOi2ntt7HYx_4izd-uwvDAvLsy74IbY"},
{"guid":"27da2b24e0c5426fa7cc5d5256eb8e03.16","title":"Percorso Vita: Tappa 4 - Parco Toti","coordinates":{"lat":"45.572817","lng":"9.17525"},"link":{"intel":"https://intel.ingress.com/intel?ll=45.572817,9.17525&z=16&pll=45.572817,9.17525","gmap":"https://google.com/maps/place/45.572817,9.17525"},"image":"https://lh3.googleusercontent.com/AK7zvV_5xDGab-fMvva1H4as451antor5J_c2-ri1sBvZdr-k6VQ7vuSNc6Q2f7TfGkGvXAwE_KvWHOrkPEoZnLIoA"},
{"guid":"b129782afab1485aa55f57c08e3dd3ab.16","title":"Campo da Calcio Storico Parco Toti","coordinates":{"lat":"45.572438","lng":"9.175482"},"link":{"intel":"https://intel.ingress.com/intel?ll=45.572438,9.175482&z=16&pll=45.572438,9.175482","gmap":"https://google.com/maps/place/45.572438,9.175482"},"image":"https://lh3.googleusercontent.com/1dNVuxtoA2e-9sca57kLGOjA7Z8nMiwOyY-rXm7gblGUPUJQHlhERFiB4WvUOM6hIyRhtieua-ygrwKV7BZNwVj0Hg"},
{"guid":"e13c5d076c2b449d9f9e758df8b79d13.16","title":"InfoVerde Parco Toti","coordinates":{"lat":"45.572458","lng":"9.175363"},"link":{"intel":"https://intel.ingress.com/intel?ll=45.572458,9.175363&z=16&pll=45.572458,9.175363","gmap":"https://google.com/maps/place/45.572458,9.175363"},"image":"https://lh3.googleusercontent.com/S02HFTb29DTVPcV17BkB88cVz3gagejHr3IOAZ7TW15VzJmfaVgouna9UYFLm65MIGL-RXTQoJhB6fVJYJDRo0ZjBOQr"},
{"guid":"302a313c3773343fa0775b7b6663f14d.16","title":"Playground con scivolo rosso","coordinates":{"lat":"45.571672","lng":"9.175492"},"link":{"intel":"https://intel.ingress.com/intel?ll=45.571672,9.175492&z=16&pll=45.571672,9.175492","gmap":"https://google.com/maps/place/45.571672,9.175492"},"image":"https://lh3.googleusercontent.com/b9K5ZxR-yxrA9xPJoAwvFR1PvXMhOnm3iYsu7iPnPwktjRymmXmxnftBkwCmQSqBAeGDK_TKO3g66tysru2J2ShHwr0MR7W9rTk_SJU"},
{"guid":"826aa7cbc0994b04aebce96375e83e53.16","title":"Set Esercizi Atletica Toti","coordinates":{"lat":"45.571672","lng":"9.174901"},"link":{"intel":"https://intel.ingress.com/intel?ll=45.571672,9.174901&z=16&pll=45.571672,9.174901","gmap":"https://google.com/maps/place/45.571672,9.174901"},"image":"https://lh3.googleusercontent.com/ALNrAdRBHO4tZ7sl8jVNq53wLpUWZ0LXVHdHen3G6xUZLCsD3r7jRzWhnwaPSv8rjaCF4DB4gMctuONxMlZKL2Ut6dg"},
{"guid":"1406e2b8270c44479a72de81e63d162c.16","title":"Spirale Cava Nord","coordinates":{"lat":"45.578904","lng":"9.179459"},"link":{"intel":"https://intel.ingress.com/intel?ll=45.578904,9.179459&z=16&pll=45.578904,9.179459","gmap":"https://google.com/maps/place/45.578904,9.179459"},"image":"https://lh3.googleusercontent.com/27Qc4pyIO7zFv7KbUMhUaEoIkINVAmxBU2TXtra9_M5Lp9dT5FJV3Y5Oo0gE8UcBT_e8Fd_4bh7nH9ZHNiGjIaNgxZ4"},
{"guid":"2d36e977216044cdaa8df3b0e328a568.16","title":"Cascata Parco Delle Cave","coordinates":{"lat":"45.578221","lng":"9.176808"},"link":{"intel":"https://intel.ingress.com/intel?ll=45.578221,9.176808&z=16&pll=45.578221,9.176808","gmap":"https://google.com/maps/place/45.578221,9.176808"},"image":"https://lh3.googleusercontent.com/7LgEvy2c5lWwG8hxjy5Ua2XLHl7dJqmKXOUY41Hl8e_r5lKUtoZNYtdm_LPLKlyrUbnsq2vVNpLA37ADOJLjfIn2sWCB"},
{"guid":"44decbc1fd4c4104a2e1cd58f7f2520a.16","title":"Area Giochi - Parco Lago Nord","coordinates":{"lat":"45.579131","lng":"9.179377"},"link":{"intel":"https://intel.ingress.com/intel?ll=45.579131,9.179377&z=16&pll=45.579131,9.179377","gmap":"https://google.com/maps/place/45.579131,9.179377"},"image":"https://lh3.googleusercontent.com/EybCiueYBijr-Dd-Y10j2mYjfloQVTYXZSamViEdRc52HU34lFmYM1qZJXBOpsRMspO-4Lqtz3OcXSbFRfMQ9TQbixa8"},
{"guid":"5fd9edd1bab54e528e66999b1ff3f19e.16","title":"Cartello - Piante Protette","coordinates":{"lat":"45.578273","lng":"9.177702"},"link":{"intel":"https://intel.ingress.com/intel?ll=45.578273,9.177702&z=16&pll=45.578273,9.177702","gmap":"https://google.com/maps/place/45.578273,9.177702"},"image":"https://lh3.googleusercontent.com/1kZn61ksOKk6Xpx64QC5OBwQ3uXAjYVw8flH13u2eTCbHEabuehXf1MnzfrLLshqhY-Dg2ggAYg5QPk76mSoSmYAxg"},
{"guid":"587e49a2ed1c435785a69e193f482e92.16","title":"Skate Race","coordinates":{"lat":"45.579288","lng":"9.179099"},"link":{"intel":"https://intel.ingress.com/intel?ll=45.579288,9.179099&z=16&pll=45.579288,9.179099","gmap":"https://google.com/maps/place/45.579288,9.179099"},"image":"https://lh3.googleusercontent.com/USKycLMy_JdzaybcItXnyiqk_1tU5UPpU5DIRccSIjhN2q9jFIdYm9ytxROiHEDMYMRc4KJ7k7WWRje53zfyYUdzeA"},
{"guid":"c81dd32db82735f7a3ee830b518e4906.16","title":"Frassino Comune","coordinates":{"lat":"45.578845","lng":"9.177428"},"link":{"intel":"https://intel.ingress.com/intel?ll=45.578845,9.177428&z=16&pll=45.578845,9.177428","gmap":"https://google.com/maps/place/45.578845,9.177428"},"image":"https://lh3.googleusercontent.com/3ORWn-5Sc5GhgMJpd-yAB8X6DNw0inGdoFOcen90FRGDQIwISgO_d0r-FUfZY-dIIhhBzJY0Zivl_QKfN3CCHdFdymks4qK6msIXzUWnLQ"},
{"guid":"44c9771a72fa44dfb600f50e9316dec9.16","title":"Ponticello Pedonale di Legno - Parco Lago Nord","coordinates":{"lat":"45.577877","lng":"9.179896"},"link":{"intel":"https://intel.ingress.com/intel?ll=45.577877,9.179896&z=16&pll=45.577877,9.179896","gmap":"https://google.com/maps/place/45.577877,9.179896"},"image":"https://lh3.googleusercontent.com/cAj5GjPyz3PMIQKVLeoXok2Sfap3zGE7E8b89usOJprqGuzrDmKN22Ciyqi59NyDnIhDeGt5ZlSCLdqg59wgm7_JM1A"},
{"guid":"11d3991cb6b34790a3ddb0101c9f281c.16","title":"Lago Nord - Centro del Parco","coordinates":{"lat":"45.578032","lng":"9.179779"},"link":{"intel":"https://intel.ingress.com/intel?ll=45.578032,9.179779&z=16&pll=45.578032,9.179779","gmap":"https://google.com/maps/place/45.578032,9.179779"},"image":"https://lh3.googleusercontent.com/Ov1823JotyRRCFhFN9DY05B4xHikPhdpdhg0TEWqLkftp4PDQQzb7xKKaGycmHSkqI9TEmlrVNQQSrix2Jn08eXtMgU"},
{"guid":"c096bfa36d07461fb99f2a46b7a4c17a.16","title":"Ali Sul Parco Lago Nord","coordinates":{"lat":"45.577586","lng":"9.179755"},"link":{"intel":"https://intel.ingress.com/intel?ll=45.577586,9.179755&z=16&pll=45.577586,9.179755","gmap":"https://google.com/maps/place/45.577586,9.179755"},"image":"https://lh3.googleusercontent.com/MDCXslN-1hrpv-HnP_z1SVS2SzrmM8her-LVot-uGmHD_HZMqp24OuvZpPxq4iO25VxRMWLgUfobuCvKl4256OshCQk"},
{"guid":"1f2b1844f9783102872f20babe0c1056.16","title":"L'ora del parco","coordinates":{"lat":"45.576549","lng":"9.179325"},"link":{"intel":"https://intel.ingress.com/intel?ll=45.576549,9.179325&z=16&pll=45.576549,9.179325","gmap":"https://google.com/maps/place/45.576549,9.179325"},"image":"https://lh3.googleusercontent.com/S1rF8BpUU8IZZMjv2uHz1KL9NThJvuuqBKN0UUncjLfbV_jL4icKR-mlpabC0eX5MmwSAfhsUFRhfDMd9t1sAeDwXSN0N8m1SiBuk9QG"},
{"guid":"788ff46671984f6b90be2679d64058b4.16","title":"Porta Serviane Parco Lago Nord","coordinates":{"lat":"45.575679","lng":"9.178947"},"link":{"intel":"https://intel.ingress.com/intel?ll=45.575679,9.178947&z=16&pll=45.575679,9.178947","gmap":"https://google.com/maps/place/45.575679,9.178947"},"image":"https://lh3.googleusercontent.com/dYJxTZCmA8t_OwJ4PiZto4tu63xYGWV0ZrGQC7eG7s1mVGpPm_gajrLBOCBQmOr0dUdzXjK2miToSvqe-dJ8D2PYBG-S"},
{"guid":"c4a55393206a302e904e58402f2c2bb1.16","title":"Area giochi con ping pong","coordinates":{"lat":"45.573668","lng":"9.175398"},"link":{"intel":"https://intel.ingress.com/intel?ll=45.573668,9.175398&z=16&pll=45.573668,9.175398","gmap":"https://google.com/maps/place/45.573668,9.175398"},"image":"https://lh3.googleusercontent.com/VhBGAMx7SoQM3B5QVyP67bFN2YUHCZBKfBdnkpwFh9n995Sy2ypvo523LuIRxq-SN-USo4WD3VtReE9_T6IQ72QpZSJ4FywerU2_AX0"},
{"guid":"31229638662c371ab876e82afb8ee80c.16","title":"Percorso Vita: Tappa 14 - Parco Toti","coordinates":{"lat":"45.572891","lng":"9.170665"},"link":{"intel":"https://intel.ingress.com/intel?ll=45.572891,9.170665&z=16&pll=45.572891,9.170665","gmap":"https://google.com/maps/place/45.572891,9.170665"},"image":"https://lh3.googleusercontent.com/dD4JWsM4DIMGaJhiouGO8mvH4kr_0jaWkYRKyRkyFhYgcqgY7xz8u0LfJ8XVgo11-5mV9ysL7yzbLRSBlZ7TabkVDZeXgmFtxinXOYMF"},
{"guid":"b1136564e76448218665e423fbeb715d.16","title":"Centro Sportivo Comunale di Via Serra","coordinates":{"lat":"45.573307","lng":"9.170296"},"link":{"intel":"https://intel.ingress.com/intel?ll=45.573307,9.170296&z=16&pll=45.573307,9.170296","gmap":"https://google.com/maps/place/45.573307,9.170296"},"image":"https://lh3.googleusercontent.com/tcZzmDX8rzbEQc-aEjSwvPidYkmr6H-5alBGrGB7yiGozfDcapn0OyRI2-LvMH4Rk7ONMLrWaU6KXet8rxleWCt7CA"},
{"guid":"49a3359987f740c4bd78b22b73c07d6a.16","title":"Area Cani Parco Toti","coordinates":{"lat":"45.573496","lng":"9.170781"},"link":{"intel":"https://intel.ingress.com/intel?ll=45.573496,9.170781&z=16&pll=45.573496,9.170781","gmap":"https://google.com/maps/place/45.573496,9.170781"},"image":"https://lh3.googleusercontent.com/gL-sWa3EMvEgkdPpuvuU0zHqkvM9GAjF6kwPhTWfMYcxQt4jDS2_EB298a7v3P1aMwfjwloQY-HdtEwKfQ4W2RkSLag"},
{"guid":"7049caa7e57f34fc8d0d1e0d4902c7ad.16","title":"Dojo di allenamento - Area Fitness","coordinates":{"lat":"45.573534","lng":"9.170153"},"link":{"intel":"https://intel.ingress.com/intel?ll=45.573534,9.170153&z=16&pll=45.573534,9.170153","gmap":"https://google.com/maps/place/45.573534,9.170153"},"image":"https://lh3.googleusercontent.com/cyZdmkkqpy8VIxqniXj0_W14HHFCtwKdStqfLFMl13UU6AK0Fn8Yo1h20bRqdBoOx_nmdy9twJWfOzXfc04YWHtUsLW2hDm3NemZBIQ"},
{"guid":"2b0bd2681d194f2184daf82e48687d6f.16","title":"Percorso vita - Tappa 1","coordinates":{"lat":"45.572293","lng":"9.190986"},"link":{"intel":"https://intel.ingress.com/intel?ll=45.572293,9.190986&z=16&pll=45.572293,9.190986","gmap":"https://google.com/maps/place/45.572293,9.190986"},"image":"https://lh3.googleusercontent.com/Ne6QK9Of1S0-8JSrcT1aPWnP8X069BCSK_ok9lUgk5VfdSUasGCImEYi-sCLXgu8RU1pEZWm6gPS0yct4d5g6ay3_IQ"},
{"guid":"3640d4648d2f3446acacb7d16dc42699.16","title":"Pino Domestico - parco di via Chopin","coordinates":{"lat":"45.572516","lng":"9.190386"},"link":{"intel":"https://intel.ingress.com/intel?ll=45.572516,9.190386&z=16&pll=45.572516,9.190386","gmap":"https://google.com/maps/place/45.572516,9.190386"},"image":"https://lh3.googleusercontent.com/SWw58liRMfMaiMwZ3OZd_dNRFAfPZO3nTAMdLkoc1q-DXrlK4NLZXWwT1YiqhllQOuXow-5p97hXIljT_cPM17xW-HBdcRI2xy28MCSH"},
{"guid":"98152a95aac44b41a92643ef59e76bb1.16","title":"Little Ranch - Associazione Sportiva Dilettantistica","coordinates":{"lat":"45.574247","lng":"9.190366"},"link":{"intel":"https://intel.ingress.com/intel?ll=45.574247,9.190366&z=16&pll=45.574247,9.190366","gmap":"https://google.com/maps/place/45.574247,9.190366"},"image":"https://lh3.googleusercontent.com/45y0RQYps8jN0HjN7G8IWb42tAqOXxZ1-4MyX3g9qC3rIqUAA67R6Kxwy6lAUHKbkh8Y0YH2IQNrKZMnSL9KxKYDnyc"},
{"guid":"19f93398c26d364a948e2484f3c68736.16","title":"Edicola Religiosa - L'incontro","coordinates":{"lat":"45.575698","lng":"9.185949"},"link":{"intel":"https://intel.ingress.com/intel?ll=45.575698,9.185949&z=16&pll=45.575698,9.185949","gmap":"https://google.com/maps/place/45.575698,9.185949"},"image":"https://lh3.googleusercontent.com/IvR5w3V8q62F1dDm14jQjR6HoZTUdN5lBXIn9MgWVI7Sl-2N_Aby_TNlytflY06PQ9I-ocEzLOC1JnqAqAak-61unWokQ1NM9ey_Nz2H"},
{"guid":"113e880966223c0cbf90e3ee512222dc.16","title":"Targa alle vittime della pandemia","coordinates":{"lat":"45.576954","lng":"9.185358"},"link":{"intel":"https://intel.ingress.com/intel?ll=45.576954,9.185358&z=16&pll=45.576954,9.185358","gmap":"https://google.com/maps/place/45.576954,9.185358"},"image":"https://lh3.googleusercontent.com/WGE4PDSz0UbyCw4bWlxefUoiN5TSTxejn9poRCUJosJe6hjA8ltispiItNJOvM1VIyvh7GU1Gh38imXEcdw_AaKsH8izIsiTGyw0jlZt"},
{"guid":"cdc8b45ac8cb489b85d2eeb9560bb5c8.16","title":"Altarino ai Santi e alla Madonna","coordinates":{"lat":"45.575739","lng":"9.189552"},"link":{"intel":"https://intel.ingress.com/intel?ll=45.575739,9.189552&z=16&pll=45.575739,9.189552","gmap":"https://google.com/maps/place/45.575739,9.189552"},"image":"https://lh3.googleusercontent.com/68WDdzndf8eyTrz5Jy-ydnIn22XuXl2IDNv7KFjxvsDhp6yGogWG7jZTf0Hmeydq8Y0KQjYa8LNGPLJc4TZfRJdz4kg"},
{"guid":"ee91db9ba6494324a88457e8fa74032e.16","title":"Il Verruccano Lombardo","coordinates":{"lat":"45.577959","lng":"9.185544"},"link":{"intel":"https://intel.ingress.com/intel?ll=45.577959,9.185544&z=16&pll=45.577959,9.185544","gmap":"https://google.com/maps/place/45.577959,9.185544"},"image":"https://lh3.googleusercontent.com/4vpPMoFkOyzUtQOx-KAsam0cMhn_BapubTW-JwV4mul5lBwnIhcIaE3QfhaZrgiDMrWbP3BUv2vzW-u96tVlXTWP45SSIH9nTKh0Um4"},
{"guid":"d4194a73e92f418c8f645d658bd5c236.16","title":"Il fiume una miriade di microhabitat","coordinates":{"lat":"45.577324","lng":"9.185336"},"link":{"intel":"https://intel.ingress.com/intel?ll=45.577324,9.185336&z=16&pll=45.577324,9.185336","gmap":"https://google.com/maps/place/45.577324,9.185336"},"image":"https://lh3.googleusercontent.com/2Y16MPcy13gOjs8pFT14Ccjl_mh8u7F8i4T0YbzKcwNcqxk2Z-jBvxRgjXcQjyqYQUvbYq6ZcBUzLnE2u67dZ6G3EWuNcYZNG-iU3Akz"},
{"guid":"70ad0e80c1214f198c4c0312662fd593.16","title":"Playground parco via Chopin","coordinates":{"lat":"45.571939","lng":"9.190878"},"link":{"intel":"https://intel.ingress.com/intel?ll=45.571939,9.190878&z=16&pll=45.571939,9.190878","gmap":"https://google.com/maps/place/45.571939,9.190878"},"image":"https://lh3.googleusercontent.com/gO66KYcDI4LwZKj8acJ_zrYNckyxuwR_CnSp5gJTF9ryiX9kxlcLmMLtlfC8FxhV4mFlyUwgXupFp9NyaFLjfAfOjNk8"},
{"guid":"d4c5648a8ac04760874bd0266103cc98.16","title":"Area cani - parco via Chopin","coordinates":{"lat":"45.571844","lng":"9.190394"},"link":{"intel":"https://intel.ingress.com/intel?ll=45.571844,9.190394&z=16&pll=45.571844,9.190394","gmap":"https://google.com/maps/place/45.571844,9.190394"},"image":"https://lh3.googleusercontent.com/SnlgHehH5jyG_SIiKSeyZ-JIwh-5p0keyLpAfIQHpfB5YQ6AErMu4-MSopOgj6PnhTCZunpooTyoGMVCEuR2QtZpAw"},
{"guid":"a094308cac2a4972ae8fec460d30efd3.16","title":"Pallavolo Paderno Dugnano","coordinates":{"lat":"45.571571","lng":"9.189895"},"link":{"intel":"https://intel.ingress.com/intel?ll=45.571571,9.189895&z=16&pll=45.571571,9.189895","gmap":"https://google.com/maps/place/45.571571,9.189895"},"image":"https://lh3.googleusercontent.com/QVN6xyYlvoS6O68RcZZXSMrxBGVFaMxPk8nQ_MkviP92__N4ypcycN6BoP30GeTqBX2q8M6eaBqGwD44C4k_J37OBw"},
{"guid":"7010c3777a834a0994d3217925609cd0.16","title":"Targa al sindaco Stefano Strada","coordinates":{"lat":"45.576554","lng":"9.181096"},"link":{"intel":"https://intel.ingress.com/intel?ll=45.576554,9.181096&z=16&pll=45.576554,9.181096","gmap":"https://google.com/maps/place/45.576554,9.181096"},"image":"https://lh3.googleusercontent.com/lqVnEZ6g5H_5aD1_a2F52OOBAO6_ymPErARE9axKeDIaR1Qv5QBiWr4NWng1xhdzQBqtac-0gozf1IHVvjpSF_wxnALD"},
{"guid":"a5f79f74a99d48509141359a2fd990eb.16","title":"Anfiteatro Parco Lago Nord","coordinates":{"lat":"45.576444","lng":"9.181425"},"link":{"intel":"https://intel.ingress.com/intel?ll=45.576444,9.181425&z=16&pll=45.576444,9.181425","gmap":"https://google.com/maps/place/45.576444,9.181425"},"image":"https://lh3.googleusercontent.com/QPGwD28Tsyf6dBdW4nl0-Yzs574cb95xqEM6qYtIBz3mdUuxog6pwUijupo-_X8OfzdKe09DjWLyAy9CZrJBHbmd1ac"},
{"guid":"12d4d48f7027420ca29ae6a8f9513c0c.16","title":"Percorso Vita - Tappa 7","coordinates":{"lat":"45.576161","lng":"9.180749"},"link":{"intel":"https://intel.ingress.com/intel?ll=45.576161,9.180749&z=16&pll=45.576161,9.180749","gmap":"https://google.com/maps/place/45.576161,9.180749"},"image":"https://lh3.googleusercontent.com/EnPr40T2k7njQJhaOaljiOsNnz1Fc7-1evrnqMAKsvga1hqj8Z6qte6AkGgY38qhk3aYxa38dmpESGMawCUN2rC-hzMf"},
{"guid":"797a22debc3b44eb838aef51b6d54c96.16","title":"Scout Group","coordinates":{"lat":"45.57651","lng":"9.180597"},"link":{"intel":"https://intel.ingress.com/intel?ll=45.57651,9.180597&z=16&pll=45.57651,9.180597","gmap":"https://google.com/maps/place/45.57651,9.180597"},"image":"https://lh3.googleusercontent.com/pTE_VdQ7ObwUCTOjmlAQ1zsrIOXJ_7GKAmtV722gqu0Qrks-KltoDArOjrL-jM71-_qrN5SsrFEQKtpbEB9-IV04vi0"},
{"guid":"f1e03105a7b649d5a6c660e98bdef115.16","title":"Percorso Vita - Tappa 8","coordinates":{"lat":"45.57656","lng":"9.180426"},"link":{"intel":"https://intel.ingress.com/intel?ll=45.57656,9.180426&z=16&pll=45.57656,9.180426","gmap":"https://google.com/maps/place/45.57656,9.180426"},"image":"https://lh3.googleusercontent.com/Ih5EDa3UYYkB03mIWbcqJ9EigzBAksgKBv0hOyLATsJXt_LA-GJr8OedAjm1MhdYfuaXbry19yQqyiitmsLduGtwh_c"},
{"guid":"843e2c0d302b4ef1b7b37f369185f75c.16","title":"Percorso Ginnico - Arrampicata Atletica","coordinates":{"lat":"45.575919","lng":"9.183143"},"link":{"intel":"https://intel.ingress.com/intel?ll=45.575919,9.183143&z=16&pll=45.575919,9.183143","gmap":"https://google.com/maps/place/45.575919,9.183143"},"image":"https://lh3.googleusercontent.com/Wgkjvo7vBjZ6xsK8pxQWzYMgPRZSf_jkfbwY5qsNzWG5tzxYyfW8e-PlN-Y7bj8uX1ntONcTonuvUAD6E251b9rvs7c"},
{"guid":"7617c752fb5c4157a3f4ac2423db6eaf.16","title":"Percorso Ginnico - Squat","coordinates":{"lat":"45.575913","lng":"9.18253"},"link":{"intel":"https://intel.ingress.com/intel?ll=45.575913,9.18253&z=16&pll=45.575913,9.18253","gmap":"https://google.com/maps/place/45.575913,9.18253"},"image":"https://lh3.googleusercontent.com/VN5Ep02ydObOzIUqHifIWyCCzyWLkmLKtS89N0hQmUdpkhfNM4Sd1bXkYAOQ4bdRN45SRX5rlEr9hhHonw9wWAFyM5FF"},
{"guid":"acc01384a9a74a68b0c27ad5e44fdaff.16","title":"Cartello Parco Lago Nord","coordinates":{"lat":"45.575758","lng":"9.184324"},"link":{"intel":"https://intel.ingress.com/intel?ll=45.575758,9.184324&z=16&pll=45.575758,9.184324","gmap":"https://google.com/maps/place/45.575758,9.184324"},"image":"https://lh3.googleusercontent.com/wMH0Sc-iiy5KZXwBj6F_0-soiE5Pga7-huARQI0EC3dbG8TKYYxg40YqclbbePHto6CD2NRppdJXwwDLYaN5FJxEmxo"},
{"guid":"b55c1aae4e704973bc51743e7e1785f1.16","title":"La fontana del giardino","coordinates":{"lat":"45.577309","lng":"9.18248"},"link":{"intel":"https://intel.ingress.com/intel?ll=45.577309,9.18248&z=16&pll=45.577309,9.18248","gmap":"https://google.com/maps/place/45.577309,9.18248"},"image":"https://lh3.googleusercontent.com/xIR64k1nOtEUb2dvV7SeMoXSZne3N1uciPBCVle-NvEm2_BIlTlT3UUjNlNjy_yqq3KrMKGIN2nwu5MJMclmBuWY3mc"},
{"guid":"e7641de3028544e19ce9072de6a0b302.16","title":"Percorso Ginnico - Scalata","coordinates":{"lat":"45.576165","lng":"9.183312"},"link":{"intel":"https://intel.ingress.com/intel?ll=45.576165,9.183312&z=16&pll=45.576165,9.183312","gmap":"https://google.com/maps/place/45.576165,9.183312"},"image":"https://lh3.googleusercontent.com/hJa-DjGBiEBAtb10V0C9FZMCrAaykRt8NKmZUmYEu510jxq9vTV8H-GJGfwLbjikeqiMJVOaGFq6m-88UIt3Skikzbs"},
{"guid":"38c53e4ea53b42daaf4cad7b9309e41d.16","title":"Gazebo nel Parco Lago Nord","coordinates":{"lat":"45.575501","lng":"9.183638"},"link":{"intel":"https://intel.ingress.com/intel?ll=45.575501,9.183638&z=16&pll=45.575501,9.183638","gmap":"https://google.com/maps/place/45.575501,9.183638"},"image":"https://lh3.googleusercontent.com/j0pL3TYUzkzyoWM-U0Q1edv1W5rIpLt4NbEAg2dU_-4unMcWgr9E8mYk5NUWvRG4g2R_iIWWv8C6zduFiOz9nyM9dzt7"},
{"guid":"cf13871af08e461a9889065d14f3d790.16","title":"Percorso Ginnico - Stretching","coordinates":{"lat":"45.575871","lng":"9.183568"},"link":{"intel":"https://intel.ingress.com/intel?ll=45.575871,9.183568&z=16&pll=45.575871,9.183568","gmap":"https://google.com/maps/place/45.575871,9.183568"},"image":"https://lh3.googleusercontent.com/zw76uP5rqMHVKhXRtyNY_00q12pQrmf9dpEN5kLeN3uVjzb5SEb7blQF8-UGgiWYST1sECDBsU1IW5FEZUmcbw9EzWg"},
{"guid":"740b10cda10e372aa6f8bfbc81e401f7.16","title":"Altarino nel parco dedicato alla Madonna","coordinates":{"lat":"45.575112","lng":"9.184408"},"link":{"intel":"https://intel.ingress.com/intel?ll=45.575112,9.184408&z=16&pll=45.575112,9.184408","gmap":"https://google.com/maps/place/45.575112,9.184408"},"image":"https://lh3.googleusercontent.com/9GvN03h--YG5DIZkZFkkixVhDMUf0APn9HJpB_DfiZutoggZiTiyVWNe2OexKEA4x1KfcB21V8zONt93y3i44mJOHhULiRiCcYUdnHY-"},
{"guid":"54b28cd74caa4e4eaf3f432d3f48bb33.16","title":"Parco Lago Nord","coordinates":{"lat":"45.5743","lng":"9.183536"},"link":{"intel":"https://intel.ingress.com/intel?ll=45.5743,9.183536&z=16&pll=45.5743,9.183536","gmap":"https://google.com/maps/place/45.5743,9.183536"},"image":"https://lh3.googleusercontent.com/rSw0Zo6F7JVopY8aU_jk_l9oBRzF2w7x6eezwotuyrocapAG3xBkJbfTsyLs4K2qK7mjsRFZ2UeQZh71ha5wPfTmPrQ"},
{"guid":"c42dee9008bb472086dd84dba399a82f.16","title":"Info Point - Parco Lago Nord","coordinates":{"lat":"45.574372","lng":"9.183584"},"link":{"intel":"https://intel.ingress.com/intel?ll=45.574372,9.183584&z=16&pll=45.574372,9.183584","gmap":"https://google.com/maps/place/45.574372,9.183584"},"image":"https://lh3.googleusercontent.com/6v8XODpwH-VHHiC0C2PhhBlskEe0tlYXhnoExGAl9KMLaDLYrH7nat_cMplm-KktakhevcpBA0aozD80ndZnrQkQow"},
{"guid":"075e90cf3cd7409eb99156cc4a42e3ee.16","title":"Parco GruBrìa","coordinates":{"lat":"45.574523","lng":"9.183468"},"link":{"intel":"https://intel.ingress.com/intel?ll=45.574523,9.183468&z=16&pll=45.574523,9.183468","gmap":"https://google.com/maps/place/45.574523,9.183468"},"image":"https://lh3.googleusercontent.com/WQAC-uvgJa7pyJE5heIK34d-56hGbtkdmUvQm2IhyYv66Gj-IR5JAOKJcbMDupGGp70GaQaNOFJxrXKH8kbvW2XrKmGlvHKgwQ76vFY"},
{"guid":"7f0eb2f3aa72421d96a5b70b49ba6403.16","title":"Cartello Informativo - Sguardi sul Parco Grugnotorto Villoresi","coordinates":{"lat":"45.5743","lng":"9.18351"},"link":{"intel":"https://intel.ingress.com/intel?ll=45.5743,9.18351&z=16&pll=45.5743,9.18351","gmap":"https://google.com/maps/place/45.5743,9.18351"},"image":"https://lh3.googleusercontent.com/FkJP0z60wUfNcHPH3VUttGqr_GBhoqfoPLkQBGeMwxpndszalJNw58VOIInCBpvepo4KR0gn97SsBx4-K5Rd3a1UEg"},
{"guid":"4551ad6d23e74253a489e8a1c7121b79.16","title":"Cartello fauna locale - \"Ali sul Parco Lago Nord\"","coordinates":{"lat":"45.577563","lng":"9.182791"},"link":{"intel":"https://intel.ingress.com/intel?ll=45.577563,9.182791&z=16&pll=45.577563,9.182791","gmap":"https://google.com/maps/place/45.577563,9.182791"},"image":"https://lh3.googleusercontent.com/V3-qaCewkYGKLe55LzVbYog27mAdi0AvmUMBa0PyX5QDqjDlAllRGS5fJ7XpcSLd4AtvXHVBnKEAZqXMl2mm92sb9tc"},
{"guid":"49c19007fcd948efab6c99f4810b9543.16","title":"Fauna locale - Upupa","coordinates":{"lat":"45.577687","lng":"9.183549"},"link":{"intel":"https://intel.ingress.com/intel?ll=45.577687,9.183549&z=16&pll=45.577687,9.183549","gmap":"https://google.com/maps/place/45.577687,9.183549"},"image":"https://lh3.googleusercontent.com/_S_7_kN198KXTdgskKJRogBDwgfHNmjCnHoBOAVcG267CtEClGPUWWRNksm4N-XRPiGPcBbcgl_EFFhOprTTtpTVV5M"},
{"guid":"1cd6440c5db24d43b065cb6507a25b1c.16","title":"Scalinata del Belvedere - Parco Lago Nord","coordinates":{"lat":"45.577856","lng":"9.180869"},"link":{"intel":"https://intel.ingress.com/intel?ll=45.577856,9.180869&z=16&pll=45.577856,9.180869","gmap":"https://google.com/maps/place/45.577856,9.180869"},"image":"https://lh3.googleusercontent.com/3ti75DhrJxhlDUWvb8Fbg-Y4qnGIWo_KYRgU_M2ij__Z4nm5f1YMq4QfxjDBcGf_m6l5eb3jK3A954A7pgd1TS_6Yw"},
{"guid":"c8336d7798a544bfb912b4bac47bd78f.16","title":"Cartello Topografico Parco Lago Nord","coordinates":{"lat":"45.577489","lng":"9.181993"},"link":{"intel":"https://intel.ingress.com/intel?ll=45.577489,9.181993&z=16&pll=45.577489,9.181993","gmap":"https://google.com/maps/place/45.577489,9.181993"},"image":"https://lh3.googleusercontent.com/NFR1fYJyMODxe7pphLhxKeLtTaTWlHEzkYLSWlBKvTiBjsurWMrFppwEz8mziS9foRd4nbUYmMEJ15MCBGwi-Z2ryg"},
{"guid":"996a099701d43c4fba25e7b5714987e6.16","title":"Panchina Totem","coordinates":{"lat":"45.578269","lng":"9.18008"},"link":{"intel":"https://intel.ingress.com/intel?ll=45.578269,9.18008&z=16&pll=45.578269,9.18008","gmap":"https://google.com/maps/place/45.578269,9.18008"},"image":"https://lh3.googleusercontent.com/GHmMbuiLvoRnOzDNAO6J4xJtn2fFg7Rqj5WgvSadmZvQDYKAxsUJWAbhX-Ul3X6VcEtRp9U3wnSJy5EG43egrxvuwNFErgGDWELYwFw"},
{"guid":"50be99e9030947ed8b1d390db3f64fd9.16","title":"Fontana via Chopin","coordinates":{"lat":"45.571482","lng":"9.188293"},"link":{"intel":"https://intel.ingress.com/intel?ll=45.571482,9.188293&z=16&pll=45.571482,9.188293","gmap":"https://google.com/maps/place/45.571482,9.188293"},"image":"https://lh3.googleusercontent.com/cRbOEbA_syDUArjFLATp0PnZPOCqDsHHbWqWvoVLoHuxL5xGyVRwhxYtlj-qZnMi6c4h8p5pFT1KeiAX8m_P49Y_fRw"},
{"guid":"5e3084ba7ade40b6b1e2d190c9f1fbea.16","title":"Polisportiva oratorio San Luigi Dugnano - POSL","coordinates":{"lat":"45.571589","lng":"9.187206"},"link":{"intel":"https://intel.ingress.com/intel?ll=45.571589,9.187206&z=16&pll=45.571589,9.187206","gmap":"https://google.com/maps/place/45.571589,9.187206"},"image":"https://lh3.googleusercontent.com/8C9hPXbWtN1NZcUbN3AFOlPXMYAD5IPuzkTm-7z7pltBn8o7FLbdjQcWIkXm51H1LuD9rNjLav6LAOLHmszNQ1IaggQ"},
{"guid":"078c0924438b48878351d00a521b6deb.16","title":"Monastero Maria Madre Della Chiesa","coordinates":{"lat":"45.566113","lng":"9.154687"},"link":{"intel":"https://intel.ingress.com/intel?ll=45.566113,9.154687&z=16&pll=45.566113,9.154687","gmap":"https://google.com/maps/place/45.566113,9.154687"},"image":"https://lh3.googleusercontent.com/MNv0rJPctnCYWIXhKA32-Yrm8SMh5lF5wDaDZ_oBrfCv7SqtdPH72t9E17xFOZ6Pn0wUcaG3MXB3O24tdN29b7ZVsUbO"},
{"guid":"240c97fba42f450c9cbf844d3fc0b1ad.16","title":"Parco di Via Ugo La Malfa - Paderno Dugnano","coordinates":{"lat":"45.568518","lng":"9.15415"},"link":{"intel":"https://intel.ingress.com/intel?ll=45.568518,9.15415&z=16&pll=45.568518,9.15415","gmap":"https://google.com/maps/place/45.568518,9.15415"},"image":"https://lh3.googleusercontent.com/w_Zqc9KEpvUsN9wqo_5U6MXTMB1Xin07nfAg9xZwrXvzAfAahjRbL4RRBZ1OKxRK8ctDQXuA8Is1HhpARPX-_X4-gBA"},
{"guid":"806ef4efa6054672910d9ab8319bed34.16","title":"Campo da calcio a 7","coordinates":{"lat":"45.569475","lng":"9.153377"},"link":{"intel":"https://intel.ingress.com/intel?ll=45.569475,9.153377&z=16&pll=45.569475,9.153377","gmap":"https://google.com/maps/place/45.569475,9.153377"},"image":"https://lh3.googleusercontent.com/99dmXZSbxSoXPK9bv4DEWocPlC_poBmsPMtHWAYu4OpzxUxCV_CZDDl3zqmJj7vxUMwEOvyhCkM3lq6L1Wf39yb9rrju"},
{"guid":"e7a30e0cdbe14d40aad181eaa23bcdad.16","title":"Paderna - Com'era...","coordinates":{"lat":"45.564747","lng":"9.161619"},"link":{"intel":"https://intel.ingress.com/intel?ll=45.564747,9.161619&z=16&pll=45.564747,9.161619","gmap":"https://google.com/maps/place/45.564747,9.161619"},"image":"https://lh3.googleusercontent.com/RzwFqy5bZk2OBy115vlmGL82E8R4GkQSGJS0E-Vbaq1-8cexPeuaHcelgf23XIG0eDfYCr_YpFkdb4dcRWCTKn-sltY3"},
{"guid":"76ef3d3b0a2341a3931183a02f93c74c.16","title":"Madonna della Grotta S.S. Immacolata","coordinates":{"lat":"45.564029","lng":"9.164851"},"link":{"intel":"https://intel.ingress.com/intel?ll=45.564029,9.164851&z=16&pll=45.564029,9.164851","gmap":"https://google.com/maps/place/45.564029,9.164851"},"image":"https://lh3.googleusercontent.com/FUO_yoSixFFWDlIC1del4wKflYNecf0d-sjvj49Y2RPywdPBHmZqx-AGYNScoWMPCd2LJ-PM2X3-PcHTagKkRCqa0xiv"},
{"guid":"3e891cca7c604c19b650a29122812145.16","title":"Chiesa di Santa Maria nascente Paderno Dugnano","coordinates":{"lat":"45.564022","lng":"9.164302"},"link":{"intel":"https://intel.ingress.com/intel?ll=45.564022,9.164302&z=16&pll=45.564022,9.164302","gmap":"https://google.com/maps/place/45.564022,9.164302"},"image":"https://lh3.googleusercontent.com/xxzekPvoVMjTl7-_bOrve_a8BV2kBo3xLfhUHHPhbXEs-39PMsmFHdtFxPKhFJbc-yPV0lpBi6bdA2iSfjzyaK7JqUA"},
{"guid":"385176502c3e3ae593057131269346a6.16","title":"Campanile di Paderno","coordinates":{"lat":"45.563828","lng":"9.163578"},"link":{"intel":"https://intel.ingress.com/intel?ll=45.563828,9.163578&z=16&pll=45.563828,9.163578","gmap":"https://google.com/maps/place/45.563828,9.163578"},"image":"https://lh3.googleusercontent.com/_4dkNo6WvLTGvPRc4OVPdlz0-M1dXLvdXnYmFsG5nCWjbkbJqZZlR99SgjSqmuz2YPLc4prJTaLbiKJnN9una1e6Uag"},
{"guid":"a0ffbde7b5ed421bacb2437e1331746c.16","title":"Villa Bossi Riboldi - Paderno Dugnano","coordinates":{"lat":"45.564342","lng":"9.167071"},"link":{"intel":"https://intel.ingress.com/intel?ll=45.564342,9.167071&z=16&pll=45.564342,9.167071","gmap":"https://google.com/maps/place/45.564342,9.167071"},"image":"https://lh3.googleusercontent.com/fnAY5TTL6NZEso93fJ6TuVubEzky1rTVJUpfHNAMDwGf8v21bBr1p36McJ7QhluMEHzQFCT6zsNcekqBghiS4rv9t4w"},
{"guid":"e797612374374f6390ce0630000b0ff2.16","title":"Targa ad Agostino Gaetano Riboldi","coordinates":{"lat":"45.564413","lng":"9.167368"},"link":{"intel":"https://intel.ingress.com/intel?ll=45.564413,9.167368&z=16&pll=45.564413,9.167368","gmap":"https://google.com/maps/place/45.564413,9.167368"},"image":"https://lh3.googleusercontent.com/kD4oGRhJHA35RnPeMaRa2-AaURjkl28re--IwX4MlRe3f01AFLnRv0VVZgV3UTN3yPaOukcV2GHOMqIKaRtUCT7H-PU"},
{"guid":"c958807621c742d79867df0fed40cf82.16","title":"Villa e Parco Maga - Paderno Dugnano","coordinates":{"lat":"45.564733","lng":"9.166932"},"link":{"intel":"https://intel.ingress.com/intel?ll=45.564733,9.166932&z=16&pll=45.564733,9.166932","gmap":"https://google.com/maps/place/45.564733,9.166932"},"image":"https://lh3.googleusercontent.com/-v7Rkjw2ZcvqImsIeEw_GAQFquqCCxiu3KWy8jVINI7okUTdGzsioqVqpvbilFQcchrlqvCcqQnhkHl_Ye-zRFN2jA"},
{"guid":"a65786e97ca74017ab2eacf09f3f3c3e.16","title":"Cristo Crocifisso","coordinates":{"lat":"45.565013","lng":"9.166757"},"link":{"intel":"https://intel.ingress.com/intel?ll=45.565013,9.166757&z=16&pll=45.565013,9.166757","gmap":"https://google.com/maps/place/45.565013,9.166757"},"image":"https://lh3.googleusercontent.com/mmbMu3i7w_3FCU0fHk28KKaN3batoIObwP0bqNQxBiG5kmWfcPHiNBD1oYt0gTsgEOTMwPM6uG3vNaeH5JVeldjEYE4"},
{"guid":"55addedee2244c9e98b0a39fff5c4236.16","title":"Targa a Ferdinando Uboldi ( 1862 - 1950 )","coordinates":{"lat":"45.569704","lng":"9.164338"},"link":{"intel":"https://intel.ingress.com/intel?ll=45.569704,9.164338&z=16&pll=45.569704,9.164338","gmap":"https://google.com/maps/place/45.569704,9.164338"},"image":"https://lh3.googleusercontent.com/4pv0uNR728YFieGG86OpVuAvrfzWOqNrj1lAYFY45epNeELBzNGRidA7lykszhcvhs3FPiVWBRshfhCdNbqysU2g-VM"},
{"guid":"ae327a046a0730e79f13222e3c59f1e9.16","title":"Gallo segna vento","coordinates":{"lat":"45.571338","lng":"9.164811"},"link":{"intel":"https://intel.ingress.com/intel?ll=45.571338,9.164811&z=16&pll=45.571338,9.164811","gmap":"https://google.com/maps/place/45.571338,9.164811"},"image":"https://lh3.googleusercontent.com/ypcs4__a73nXqtj93M-4ufaMswdcf5xWd6wbFaoepnyjNPAyPkt0y6b5s3j58fYuFNNWvFrXNAG1S2X4QoyobySfIF4mhcmxFqvDYPk"},
{"guid":"557bc738cb1e42ca92df454435b734e1.16","title":"Antica Cartina di Paderno Dugnano","coordinates":{"lat":"45.571013","lng":"9.163948"},"link":{"intel":"https://intel.ingress.com/intel?ll=45.571013,9.163948&z=16&pll=45.571013,9.163948","gmap":"https://google.com/maps/place/45.571013,9.163948"},"image":"https://lh3.googleusercontent.com/0yXn37UoJlLbyeBCzH11wlBYswDsMo5nqK0FEcAen96kYRJJMwAOCg_2VoSpUEzHHklQf5bTMREH17wDMpuGSBLXOIw"},
{"guid":"536fed0b1d5b45bfb93be0eada7811c0.16","title":"Charlie Memorial Murales","coordinates":{"lat":"45.570045","lng":"9.15971"},"link":{"intel":"https://intel.ingress.com/intel?ll=45.570045,9.15971&z=16&pll=45.570045,9.15971","gmap":"https://google.com/maps/place/45.570045,9.15971"},"image":"https://lh3.googleusercontent.com/cW-TLlw4h5zVq7qQxpJ415ObASXNhjz0ucyF0gzDDvivRePGRTamWo_kHWcBMdsN1Vk6XSdDFvEzIRzX4yPYnIpHxic"},
{"guid":"b8c27b3b76f5490fb1f4bc0660d2a191.16","title":"Memoriale all' Incuria umana.","coordinates":{"lat":"45.56741","lng":"9.159358"},"link":{"intel":"https://intel.ingress.com/intel?ll=45.56741,9.159358&z=16&pll=45.56741,9.159358","gmap":"https://google.com/maps/place/45.56741,9.159358"},"image":"https://lh3.googleusercontent.com/5--1un2k5trZD7j19a9aSueOHdM4x1mbl3RYykXj_qOgdqrKKs_0EEoDIbvgckaEGMqkF661x_tvNm1fn42y7xYu2z4l"},
{"guid":"aea0b7a959d8466eabcd59c800afc743.16","title":"Targa ad Angelo Cazzaniga","coordinates":{"lat":"45.568502","lng":"9.160018"},"link":{"intel":"https://intel.ingress.com/intel?ll=45.568502,9.160018&z=16&pll=45.568502,9.160018","gmap":"https://google.com/maps/place/45.568502,9.160018"},"image":"https://lh3.googleusercontent.com/XY0xYaVsA2oKTWgToujVEZ1YqJVJu7pwaf65nMxYcFZRPmR09EsjM5eM2jcObG6LBw1sF04l1b4eaIeL62vHudkoYg"},
{"guid":"c493e64388db448784a8a6200bf845eb.16","title":"Antico Cimitero Paderno","coordinates":{"lat":"45.567983","lng":"9.160492"},"link":{"intel":"https://intel.ingress.com/intel?ll=45.567983,9.160492&z=16&pll=45.567983,9.160492","gmap":"https://google.com/maps/place/45.567983,9.160492"},"image":"https://lh3.googleusercontent.com/P3hpCnNqH_7qWbO3pmS7koE8u47zdWclgxlo9d2eHuRhszd-gDOkbUJ-EG3clBv4ZtjgBXZLTMPZ9ka-6g67"},
{"guid":"c31cadbfd28f48328ff7cca0a6788c8a.16","title":"Casetta dei libri - Paderno Dugnano","coordinates":{"lat":"45.568956","lng":"9.159296"},"link":{"intel":"https://intel.ingress.com/intel?ll=45.568956,9.159296&z=16&pll=45.568956,9.159296","gmap":"https://google.com/maps/place/45.568956,9.159296"},"image":"https://lh3.googleusercontent.com/fV-dBT43kPkiP2zRJEmU8baKfNZuEpRhm86ldbFUVF4dmbG1dyjKXGRyFX7RCZ_24KU5TF1VnhoPZKMHn7__dkWjucA"},
{"guid":"88ab4a0a649648b7a511b77ca55060c3.16","title":"Città di Paderno Dugnano","coordinates":{"lat":"45.568221","lng":"9.164747"},"link":{"intel":"https://intel.ingress.com/intel?ll=45.568221,9.164747&z=16&pll=45.568221,9.164747","gmap":"https://google.com/maps/place/45.568221,9.164747"},"image":"https://lh3.googleusercontent.com/F9qsCbtv2Vwf1wvoBMsfEF9ASj_IXZOzI7nqPcNPpFZneH6fL7pZEOZP77MPpjhbbsxcV2hh0nZkpP8h-wzX26G8Gkc"},
{"guid":"412178d810074bd7b8333f15470af01f.16","title":"Madonna tra le rose","coordinates":{"lat":"45.568197","lng":"9.164763"},"link":{"intel":"https://intel.ingress.com/intel?ll=45.568197,9.164763&z=16&pll=45.568197,9.164763","gmap":"https://google.com/maps/place/45.568197,9.164763"},"image":"https://lh3.googleusercontent.com/iiC7wHmlyecZWskikaNT5qDlQextkXESQcHwGz3jECiaoLmHvX0fhsjWVVxGvphoAAHkSuDLf4TRudFZ04WhO4UOESs"},
{"guid":"efd5717348024e97ab20487a342d1ead.16","title":"Madonna di Venturini - 1953","coordinates":{"lat":"45.568974","lng":"9.164604"},"link":{"intel":"https://intel.ingress.com/intel?ll=45.568974,9.164604&z=16&pll=45.568974,9.164604","gmap":"https://google.com/maps/place/45.568974,9.164604"},"image":"https://lh3.googleusercontent.com/yfwzB-b0nt3_Ojw9tcI6w9mVY-kTeVwCEqfGkpWK8wdwopjGL9RLtHsH7G_ctrEFchQKdi8PCTpD37ckgWsldM6DIvk"},
{"guid":"f8297fc4fb5e497b9a2567024c1acd3c.16","title":"Crocifissione di Gesù","coordinates":{"lat":"45.567976","lng":"9.164281"},"link":{"intel":"https://intel.ingress.com/intel?ll=45.567976,9.164281&z=16&pll=45.567976,9.164281","gmap":"https://google.com/maps/place/45.567976,9.164281"},"image":"https://lh3.googleusercontent.com/1Rah_L2gg-d5Pg5SKeCNTUGaoSIr3SoOCQg3E6fRf8kv38eTbjgMy-2RgexnzKfZdmbinIO6NcXw_tgRkxGjFV0jA3th"},
{"guid":"f79c9d8eab7f4fa5845c9e89dc3eff8b.16","title":"Dugnan - Com'era...","coordinates":{"lat":"45.56797","lng":"9.164671"},"link":{"intel":"https://intel.ingress.com/intel?ll=45.56797,9.164671&z=16&pll=45.56797,9.164671","gmap":"https://google.com/maps/place/45.56797,9.164671"},"image":"https://lh3.googleusercontent.com/3-eXVzXm3C0K5MvIPY7PKfNgWBK0qao1g6LxNuK8rm647xpcbWVr1Z9p6-6UdOC-OVc2C3oWLcLXRwaSvxQb8Es73PE"},
{"guid":"abada3a9d51a49ce9a61d474e4c5d7cc.16","title":"Dipinto della Madonna","coordinates":{"lat":"45.569185","lng":"9.164884"},"link":{"intel":"https://intel.ingress.com/intel?ll=45.569185,9.164884&z=16&pll=45.569185,9.164884","gmap":"https://google.com/maps/place/45.569185,9.164884"},"image":"https://lh3.googleusercontent.com/BA0wAkohFDuOkeCrTypDescr6LkevRkgcVdyAGc6hYGKsMbdCR0js_11gFW_r05WbtwrPKJ1_QtzX09SKAfrhdKKG_k"},
{"guid":"1207f9ac04534074917d964afaef8ee5.16","title":"Poste Italiane Centro Paderno Dugnano","coordinates":{"lat":"45.568698","lng":"9.163735"},"link":{"intel":"https://intel.ingress.com/intel?ll=45.568698,9.163735&z=16&pll=45.568698,9.163735","gmap":"https://google.com/maps/place/45.568698,9.163735"},"image":"https://lh3.googleusercontent.com/W_rWRfKm5Lq6SxJKKvpcl2jXMKDT_HNsHZkENFK0t8AdphyuBPY154nu8TxwbYE7cseyj5IglFjCQjg8V8oKyroPhA"},
{"guid":"0da4f6c4d1a645ccab28dfcac6584bb4.16","title":"Monumento ai cittadini dispersi in guerra","coordinates":{"lat":"45.565015","lng":"9.161817"},"link":{"intel":"https://intel.ingress.com/intel?ll=45.565015,9.161817&z=16&pll=45.565015,9.161817","gmap":"https://google.com/maps/place/45.565015,9.161817"},"image":"https://lh3.googleusercontent.com/plDEafAMIakyfvz1k26AHRAtyjtady-xf-p4m7YgX93cf0xsz5oE8BJsfYcNR1oyLY78kfqfUqx_JEspw_1Vzx_zt6_G"},
{"guid":"df17eaa2771e4217a78483b7265bc841.16","title":"Monumento alla libertá ANPI","coordinates":{"lat":"45.565257","lng":"9.161509"},"link":{"intel":"https://intel.ingress.com/intel?ll=45.565257,9.161509&z=16&pll=45.565257,9.161509","gmap":"https://google.com/maps/place/45.565257,9.161509"},"image":"https://lh3.googleusercontent.com/-81-km_c-08JaPQzrLa2CTmr43E3uNBPFi1M7FO0cTTw_qnnQZdEzRV0iK_ogopkignLG2N8zo05Cprm7ZZV-tl9RA"},
{"guid":"6f20aa8247134cd68428d69e8adb6b09.16","title":"La resurrezione","coordinates":{"lat":"45.56505","lng":"9.161711"},"link":{"intel":"https://intel.ingress.com/intel?ll=45.56505,9.161711&z=16&pll=45.56505,9.161711","gmap":"https://google.com/maps/place/45.56505,9.161711"},"image":"https://lh3.googleusercontent.com/DsSj-BMnBJL2yMmtAd_mGCoZs31Jo4GLL9oPpFW7tbYjh_s9Y0EJ4JA1izdNH3Tsxh2NPYMxXk7pyq7wAQPJAfQdwA"},
{"guid":"5e59bbf711404d6480fa197dbd247a42.16","title":"Targa a Gaspare Rotondi - Paderno Dugnano","coordinates":{"lat":"45.567092","lng":"9.162705"},"link":{"intel":"https://intel.ingress.com/intel?ll=45.567092,9.162705&z=16&pll=45.567092,9.162705","gmap":"https://google.com/maps/place/45.567092,9.162705"},"image":"https://lh3.googleusercontent.com/BMyyfpnsO20JQd5cXmWa6SdJPRGNef806016BlOAcEWWX9iD0t8T9q-Bss2-Ni1BEO_W2Q73MhyjVHl1j-ZeiJg96w68"},
{"guid":"ca6aecc60eab41738f327464b6243468.16","title":"Stazione di Paderno Dugnano","coordinates":{"lat":"45.565003","lng":"9.161395"},"link":{"intel":"https://intel.ingress.com/intel?ll=45.565003,9.161395&z=16&pll=45.565003,9.161395","gmap":"https://google.com/maps/place/45.565003,9.161395"},"image":"https://lh3.googleusercontent.com/On2ZvBS7q1SC1kEpIUyuI7ItduXy3n81MFxBVn8X1CdHT507Dux7r_UAy-7okXPXkkywMN0ddQHFxZtkNCLCZzeeG9M"},
{"guid":"0c716549b74e4f7d80b64c35d145d52f.16","title":"Ai Caduti per la Liberazione","coordinates":{"lat":"45.56513","lng":"9.16179"},"link":{"intel":"https://intel.ingress.com/intel?ll=45.56513,9.16179&z=16&pll=45.56513,9.16179","gmap":"https://google.com/maps/place/45.56513,9.16179"},"image":"https://lh3.googleusercontent.com/Vu_UnbegjZ7wHWRNSgQQ4unI2JL1HwfuZCdhmqv6I3QGv4c7uETjuVuYk96NmJiS6n7HMbJKKo9ZEKkibKSzw4tDPQ"},
{"guid":"e6cebabdde57400da56d68d33171f3d9.16","title":"Tilane Biblioteca - Paderno Dugnano","coordinates":{"lat":"45.566884","lng":"9.159483"},"link":{"intel":"https://intel.ingress.com/intel?ll=45.566884,9.159483&z=16&pll=45.566884,9.159483","gmap":"https://google.com/maps/place/45.566884,9.159483"},"image":"https://lh3.googleusercontent.com/tyNHZmJslcmoazVDtltlUrTtgc3bSKbypyxPJlrVa44OE5gMu0V2wr8AxEk-fPgVqlULG2v4c_FJbhH8kL7QIDTkMw"},
{"guid":"9c0685c373e24de194db2d1455a78792.16","title":"Area Giochi Pista Auto","coordinates":{"lat":"45.565217","lng":"9.160043"},"link":{"intel":"https://intel.ingress.com/intel?ll=45.565217,9.160043&z=16&pll=45.565217,9.160043","gmap":"https://google.com/maps/place/45.565217,9.160043"},"image":"https://lh3.googleusercontent.com/Wt9n6ZZSAXHf4ifz2cgXfwTfgv97PgCfzXIl4rtuAYKzpZ8_bB4Cqd3li_WAyTtImiojb9MUXWaSendc1OlfyfE-jKk"},
{"guid":"09bd0b0a6bae4f2ca97b08f6b6374f1d.16","title":"Velostazione Biciclette di Paderno Dugnano","coordinates":{"lat":"45.565405","lng":"9.160311"},"link":{"intel":"https://intel.ingress.com/intel?ll=45.565405,9.160311&z=16&pll=45.565405,9.160311","gmap":"https://google.com/maps/place/45.565405,9.160311"},"image":"https://lh3.googleusercontent.com/QsKnz1WHgVwuFVvBEUe3wjPHZ-VBLy7OLYiOM2-i_ieir5k3_9a9tp9bTOU7EHP6ytMUVorvBRmx15Bd8fPj5SnEq9cf"},
{"guid":"ded3a65b4e563f43ab2ee7924dc9951d.16","title":"Altarino dedicato alla Vergine Maria con Bambino","coordinates":{"lat":"45.565365","lng":"9.158432"},"link":{"intel":"https://intel.ingress.com/intel?ll=45.565365,9.158432&z=16&pll=45.565365,9.158432","gmap":"https://google.com/maps/place/45.565365,9.158432"},"image":"https://lh3.googleusercontent.com/-uTvtvU6ONH38IywheU3Sb9ledCD6szDUN7QiWqvH2Ma_WdzflqKGF-xWNZ1ZHj1_cbgqZ5Xf28EtrlTnClw5n321NtDdxZ7DfWxWFfC"},
{"guid":"1a17d0bec6bd3443bc8f7c66ddd5e57f.16","title":"Street Art - \"Il Tamponamento\"","coordinates":{"lat":"45.566051","lng":"9.160795"},"link":{"intel":"https://intel.ingress.com/intel?ll=45.566051,9.160795&z=16&pll=45.566051,9.160795","gmap":"https://google.com/maps/place/45.566051,9.160795"},"image":"https://lh3.googleusercontent.com/sVJEqtiv3rkiJwGhpbg8uyAjHDc-pl9I9AAj6KapdVDPZ-vU1AKw3R3049QT6elqZlTmjGDxVTYLeN3ukttWVcU-QCo"},
{"guid":"b0bb6dfc6e2e482bb243e83e840ae9a5.16","title":"Fontana di Piazza della Divina Commedia - Paderno Dugnano","coordinates":{"lat":"45.566416","lng":"9.159509"},"link":{"intel":"https://intel.ingress.com/intel?ll=45.566416,9.159509&z=16&pll=45.566416,9.159509","gmap":"https://google.com/maps/place/45.566416,9.159509"},"image":"https://lh3.googleusercontent.com/-mvlETTjAnh4h_8yEUizCYZmViqtbsRE-stFZt4gdT2pmh3_PNqc1vlhHa_50EZndv0uRhQ2m_w7ACQO4B0Wh2pcmw"},
{"guid":"1ce49af61d8e41b79a62c80210d28aa4.16","title":"Paderna - Com'era...","coordinates":{"lat":"45.564895","lng":"9.166135"},"link":{"intel":"https://intel.ingress.com/intel?ll=45.564895,9.166135&z=16&pll=45.564895,9.166135","gmap":"https://google.com/maps/place/45.564895,9.166135"},"image":"https://lh3.googleusercontent.com/Za6kKNd0FDU08wcMnZuJs7YAgl875Nc5CTc7eFA2zMfiDLGceMF8UFiMKV9ok_ZNUdxQMi3JBvR4pp3h8cnM5wUh_A2C"},
{"guid":"7a359edfb14c46389b726715e5726cd9.16","title":"Meridiana della Villa De Capitani D' Arzago","coordinates":{"lat":"45.566067","lng":"9.165863"},"link":{"intel":"https://intel.ingress.com/intel?ll=45.566067,9.165863&z=16&pll=45.566067,9.165863","gmap":"https://google.com/maps/place/45.566067,9.165863"},"image":"https://lh3.googleusercontent.com/DN4fnKjG58JNifcfZW2QS2K7jOpMsh9GLUd3RReRB59aUHwt3TRMSqjTkvNAUr-5LfgUMCvM8FUuePJbsOaVsAMQaI4"},
{"guid":"2a5c47ef1d1c306280a95560026dd2cb.16","title":"Targa ad Emilio de Marchi","coordinates":{"lat":"45.565977","lng":"9.166119"},"link":{"intel":"https://intel.ingress.com/intel?ll=45.565977,9.166119&z=16&pll=45.565977,9.166119","gmap":"https://google.com/maps/place/45.565977,9.166119"},"image":"https://lh3.googleusercontent.com/_hIqHg2vo6pMv2aiTf5shhcnZRVuM7C0bQx-JFE9NiDmT34CBDwhckY0e5idxsNghsOqsx0_DH2U-Rm-aOZRlo5FBRM8pxYKsZq5bNmY"},
{"guid":"adfd3be0fc9a46de85dfa34ccdbc80ca.16","title":"Parrocchia S. Maria Nascente","coordinates":{"lat":"45.564608","lng":"9.165331"},"link":{"intel":"https://intel.ingress.com/intel?ll=45.564608,9.165331&z=16&pll=45.564608,9.165331","gmap":"https://google.com/maps/place/45.564608,9.165331"},"image":"https://lh3.googleusercontent.com/I6DCrAEmZM8swgZpafAxBb8pdM2_PvWEL8cCvf4YBMT5Lg3_ayhQiLAW179I_hbLNyxMWasgUNPSf8JwYmNdQJTllMzC"},
{"guid":"d693e75debc842529c0500578eb0aed7.16","title":"Rosa dei Venti - Paderno Dugnano","coordinates":{"lat":"45.564743","lng":"9.164377"},"link":{"intel":"https://intel.ingress.com/intel?ll=45.564743,9.164377&z=16&pll=45.564743,9.164377","gmap":"https://google.com/maps/place/45.564743,9.164377"},"image":"https://lh3.googleusercontent.com/KqIM4koT6glWDqwHNQ2IHBhB13PwauxKijjT9oeAJNnqTEXuUbLivGSuisvy3FpXSzuw68C1SqDUf_OApvanAWm7EEc"},
{"guid":"e436a4cb7f2746689ea244e4ec9843fc.16","title":"Stemma della Nobile Famiglia Conti Archinto","coordinates":{"lat":"45.566691","lng":"9.165652"},"link":{"intel":"https://intel.ingress.com/intel?ll=45.566691,9.165652&z=16&pll=45.566691,9.165652","gmap":"https://google.com/maps/place/45.566691,9.165652"},"image":"https://lh3.googleusercontent.com/d-OlPCSroU8uCXBeLpUe7leXQTFb2JZZD28DRauFphrSVCCkUtO6tRHxZeBGS8gjvQ6mhV2_tSGTMxg6haHCsQbceRA"},
{"guid":"32d11ab9aa2c4cd89143d3f1a99a9784.16","title":"Monumento alla Resistenza","coordinates":{"lat":"45.568674","lng":"9.165843"},"link":{"intel":"https://intel.ingress.com/intel?ll=45.568674,9.165843&z=16&pll=45.568674,9.165843","gmap":"https://google.com/maps/place/45.568674,9.165843"},"image":"https://lh3.googleusercontent.com/e5oRZQdlHExiwCawYFUZA-bXfVV1cfa396Ubb7n-DqRCizwXZXnV0tttj5-M-GjZeGZOJQhcIjl3KKP258Zz-TMuI_w"},
{"guid":"d2817fff70e240b8bdb20d4adf6e958c.16","title":"Villa Uboldi Orombelli","coordinates":{"lat":"45.567888","lng":"9.164975"},"link":{"intel":"https://intel.ingress.com/intel?ll=45.567888,9.164975&z=16&pll=45.567888,9.164975","gmap":"https://google.com/maps/place/45.567888,9.164975"},"image":"https://lh3.googleusercontent.com/6s7LXuRgdDEgFHUxr5v3MC3BqdDZI1VTBse1oVun_PyGfMHNmLoLJjg2e4SCiaagq16xUnS66KBuQ1gxYtgVIiAZsQ"},
{"guid":"0d5f920c54904866996a4adbb76c049a.16","title":"Città di Paderno Dugnano","coordinates":{"lat":"45.56835","lng":"9.166001"},"link":{"intel":"https://intel.ingress.com/intel?ll=45.56835,9.166001&z=16&pll=45.56835,9.166001","gmap":"https://google.com/maps/place/45.56835,9.166001"},"image":"https://lh3.googleusercontent.com/-584nS4Ss64DEUbrSf3GA8GLgzLktuBM4e8RzK1_R5wBNHaZoVTjJMrw_AGJ43bBWVukunwcPl-vNVv7IYDtAbzVyw"},
{"guid":"bea994b8f2c14ff4ba8995d2cad3e69b.16","title":"Municipio di Paderno Dugnano","coordinates":{"lat":"45.568358","lng":"9.166185"},"link":{"intel":"https://intel.ingress.com/intel?ll=45.568358,9.166185&z=16&pll=45.568358,9.166185","gmap":"https://google.com/maps/place/45.568358,9.166185"},"image":"https://lh3.googleusercontent.com/6l_NImZAmj-L0e9gCi3GYYY3Y5Hyld6OfJSkQ2CcpOTcPfjH774CzN9Kz5Yr-CTgYSdS-tsoK5ADqhMpNIKK7eU4gw"},
{"guid":"cb913cf2733b43919f5db765505295c0.16","title":"Municipio Dugnan - Com'era...","coordinates":{"lat":"45.568143","lng":"9.165634"},"link":{"intel":"https://intel.ingress.com/intel?ll=45.568143,9.165634&z=16&pll=45.568143,9.165634","gmap":"https://google.com/maps/place/45.568143,9.165634"},"image":"https://lh3.googleusercontent.com/hrI5F5jGZaAQRw3D5oKULRvGfPLK1-TgKWJP5M0-GCoDBRiby3vUkCK4OebElIRZpIuYWLRq7ZzOsnMFJwIIDmC7Fw"},
{"guid":"b93ea76de61d46269c3fc7a1217f8546.16","title":"Preghiera al Cielo","coordinates":{"lat":"45.568338","lng":"9.166804"},"link":{"intel":"https://intel.ingress.com/intel?ll=45.568338,9.166804&z=16&pll=45.568338,9.166804","gmap":"https://google.com/maps/place/45.568338,9.166804"},