[
{"guid":"065fbacf99923c35970df721a9c8699c.16","title":"Area Cani Ippodromo","coordinates":{"lat":"45.48601","lng":"9.123373"},"link":{"intel":"https://intel.ingress.com/intel?ll=45.48601,9.123373&z=16&pll=45.48601,9.123373","gmap":"https://google.com/maps/place/45.48601,9.123373"},"image":"https://lh3.googleusercontent.com/UAAmsscGgSVTBBEZcPQc7IThLaA0fM-kzIgaEVFgJrcuSuFZc2ZV9RIAL1Z6h3-_DaWumj-8oO_PqZPhXGj9iPqgNuktNViJnKr5rpiBQQ"},
{"guid":"6d5b7c1b03eb4b3d91c058404ee85802.16","title":"Murales Via Daddi","coordinates":{"lat":"45.48576","lng":"9.133831"},"link":{"intel":"https://intel.ingress.com/intel?ll=45.48576,9.133831&z=16&pll=45.48576,9.133831","gmap":"https://google.com/maps/place/45.48576,9.133831"},"image":"https://lh3.googleusercontent.com/PbLh-nal62up4JZzI7ppe8FWhNxIkh9fjG9lgiRLS2jRQE6OnVVnCzDardPjUVUBC3aPdAQPw5rEYxCoQphtWoeu_w"},
{"guid":"e7f6476d76b4490f9b9cef1998867f51.16","title":"Madonnina Di Via Trenno","coordinates":{"lat":"45.485798","lng":"9.128074"},"link":{"intel":"https://intel.ingress.com/intel?ll=45.485798,9.128074&z=16&pll=45.485798,9.128074","gmap":"https://google.com/maps/place/45.485798,9.128074"},"image":"https://lh3.googleusercontent.com/oX5VG3bmTzkbdRTJ8bqkc1GXsoRF5FBh25vc-K1vBPMxpI3yQSVfBkK2rJpiQy5VdvJLTS6rkndx0v6mrvVU3n1f70Z3"},
{"guid":"e9c86c66b89e44f6a6b1d03a1075011a.16","title":"Free Wall Free Animal Murales Ippodromo","coordinates":{"lat":"45.485382","lng":"9.126522"},"link":{"intel":"https://intel.ingress.com/intel?ll=45.485382,9.126522&z=16&pll=45.485382,9.126522","gmap":"https://google.com/maps/place/45.485382,9.126522"},"image":"https://lh3.googleusercontent.com/ihDh3XnjLdSVdkt3OfHilbObXKxQj6NfdTwHvGEVbaN5UlTSdA1UJr4BaeNpr7qJuUSyNnPI-kWL2RP6mfIjdybOyA"},
{"guid":"7fbe6644e6a549eb8b0f9d32c041ce82.16","title":"Horse Diet Murales Ippodromo","coordinates":{"lat":"45.485172","lng":"9.127165"},"link":{"intel":"https://intel.ingress.com/intel?ll=45.485172,9.127165&z=16&pll=45.485172,9.127165","gmap":"https://google.com/maps/place/45.485172,9.127165"},"image":"https://lh3.googleusercontent.com/wbIxkB11QFea0ytm2quXxApMWewubTKH9uW4PCCguAKRP-hsY32Da1KGhMzM7x_uhOzAALV0aAWZmZZFvosW3qOT7AY"},
{"guid":"4b6ff14d1c3e42c1a2e72be636d16ed2.16","title":"Angry Goat Murales Ippodromo","coordinates":{"lat":"45.484937","lng":"9.128362"},"link":{"intel":"https://intel.ingress.com/intel?ll=45.484937,9.128362&z=16&pll=45.484937,9.128362","gmap":"https://google.com/maps/place/45.484937,9.128362"},"image":"https://lh3.googleusercontent.com/hdis76GOJm6nkn_zy6_i8KFL_-TkffYm5jwd-q3DaResCes3EkLGP5H6dCUnzqVPASuEZaSKh2CoMX2lpm1MasI4RZc"},
{"guid":"d86f2cb422fa3d4e989c1a7b39999177.16","title":"La Bomboletta - Murales","coordinates":{"lat":"45.485231","lng":"9.127438"},"link":{"intel":"https://intel.ingress.com/intel?ll=45.485231,9.127438&z=16&pll=45.485231,9.127438","gmap":"https://google.com/maps/place/45.485231,9.127438"},"image":"https://lh3.googleusercontent.com/PXeJSEJKw-xYMTp8fiuKVq_NKG8cf3VAChi-l_jzu8UU5f9Sm8E8YFL6eR6MEMmIFoECdmvh2w8UUJ4DhSi1aaFu7sOuyCfXnzBgfecj"},
{"guid":"658f6fcf62464af1a132e4480c70d9a8.16","title":"Associazione Astronauti Autonomi Murales Ippodromo","coordinates":{"lat":"45.484941","lng":"9.128032"},"link":{"intel":"https://intel.ingress.com/intel?ll=45.484941,9.128032&z=16&pll=45.484941,9.128032","gmap":"https://google.com/maps/place/45.484941,9.128032"},"image":"https://lh3.googleusercontent.com/-gtT7UO73aUpp36rWvCMzVx_IN9pzuDeglXsK6G9GZnSSi40gffBKhUgMqUDymF6_EADQHyKiFzSV6TudRj9m9vkpefB"},
{"guid":"85e9db3a30fb4681b3cb25d1a448ca51.16","title":"Green Mosaic Murales Ippodromo","coordinates":{"lat":"45.485032","lng":"9.127737"},"link":{"intel":"https://intel.ingress.com/intel?ll=45.485032,9.127737&z=16&pll=45.485032,9.127737","gmap":"https://google.com/maps/place/45.485032,9.127737"},"image":"https://lh3.googleusercontent.com/lwGsM5Vj87a9KZEBXiSB4oIoog-07BZygc3XcigzF1yvaYm4Tdv38ee2LoDYz8hqOpxXodQRd8_hbwqGICnM5HisUeHr"},
{"guid":"d9df0a9d190b4338bbeda5f06b3794d2.16","title":"Parrocchia S. Maria Nascente","coordinates":{"lat":"45.485985","lng":"9.128765"},"link":{"intel":"https://intel.ingress.com/intel?ll=45.485985,9.128765&z=16&pll=45.485985,9.128765","gmap":"https://google.com/maps/place/45.485985,9.128765"},"image":"https://lh3.googleusercontent.com/2zZ0MXj7lrFT-dSspL_ovCXTH9IAhl0dXrQMDhvObx23YOGfripolhw6LDWlDSsY3mjir3vjy0DJ8-z3CJHBK7USQzo"},
{"guid":"c57a929bb9f63578a6a4d899b1ebaa6d.16","title":"Playground Versilia","coordinates":{"lat":"45.485048","lng":"9.132088"},"link":{"intel":"https://intel.ingress.com/intel?ll=45.485048,9.132088&z=16&pll=45.485048,9.132088","gmap":"https://google.com/maps/place/45.485048,9.132088"},"image":"https://lh3.googleusercontent.com/RrwgbVkb6uS8CWGLlrCoiuwOEMNman5rPdgJkQrZK-7N_hVxWRei2BAuZyy7kBZBJsxTIuiORxi8ONswtEafHkNhNXSKlyfec2EdtGZQ"},
{"guid":"8bee20a4eb6d42bebcd31595f5c7d2d1.16","title":"altarino commemorativo","coordinates":{"lat":"45.485832","lng":"9.130177"},"link":{"intel":"https://intel.ingress.com/intel?ll=45.485832,9.130177&z=16&pll=45.485832,9.130177","gmap":"https://google.com/maps/place/45.485832,9.130177"},"image":"https://lh3.googleusercontent.com/lZg-TIOlbQ7qCcAjjy7PFWKcIYgLdfA6g0xikgagcbt72kJuhN88SZzja3-8F6szXrAGn1QyOcarH2lbfjvJGfJbBxQ"},
{"guid":"36c2068e9a2e3f6ab584f664261db885.16","title":"La Fiaba - Murales","coordinates":{"lat":"45.485897","lng":"9.124785"},"link":{"intel":"https://intel.ingress.com/intel?ll=45.485897,9.124785&z=16&pll=45.485897,9.124785","gmap":"https://google.com/maps/place/45.485897,9.124785"},"image":"https://lh3.googleusercontent.com/YlMy_L3fIgPo6zLcI4IQgnzkGX-2aLsrxKS4s4g_ls5b0ZFfO_WkpgKr9PIWY5Ui1pqL4H12Kv75PpJoD_9b4DYv4O96d2oRltNrdtg"},
{"guid":"b63d7663d0b64afba4255f546f2db092.16","title":"Gold Tooth Camel Murales Ippodromo","coordinates":{"lat":"45.485673","lng":"9.125103"},"link":{"intel":"https://intel.ingress.com/intel?ll=45.485673,9.125103&z=16&pll=45.485673,9.125103","gmap":"https://google.com/maps/place/45.485673,9.125103"},"image":"https://lh3.googleusercontent.com/4mB2s85fDZXE6WRIh9TJ31w4zZRrfL1SXlUZpLeLJnjMPpUfDK8UfVV-pMAFe2jPcLf-1PnHCivJyJ8X3yE7RpH6GrA"},
{"guid":"de7a454ebc893a6ebc20eb9517c5dd97.16","title":"Il Vecchio - Murales","coordinates":{"lat":"45.485653","lng":"9.125744"},"link":{"intel":"https://intel.ingress.com/intel?ll=45.485653,9.125744&z=16&pll=45.485653,9.125744","gmap":"https://google.com/maps/place/45.485653,9.125744"},"image":"https://lh3.googleusercontent.com/8ObN_ODwST6IeIrUQ-4qD-m0D6Ikhd6AkKlvuegphaRezQHNjm_uQWjraybO0WcymGy2-NmoveeXSJY8kjpc79TjN7MlLH7fCh4nO-bh"},
{"guid":"02170800731e3757b8f6818e95c5d92e.16","title":"Let's Go - Murales","coordinates":{"lat":"45.485515","lng":"9.126307"},"link":{"intel":"https://intel.ingress.com/intel?ll=45.485515,9.126307&z=16&pll=45.485515,9.126307","gmap":"https://google.com/maps/place/45.485515,9.126307"},"image":"https://lh3.googleusercontent.com/r3R9onte69vW49M6vfURGgixr9SARHTdDKazNEU3UrABG1_-8nz8ByfhEFhX4uu-QQVanxVWaOm-SuF7JmHMit1orfwFZfgmbzZ4pm4"},
{"guid":"5fbce7dfc81446bd8fb9c3ab1127cd6f.16","title":"Blue Dude Murales Ippodromo","coordinates":{"lat":"45.485482","lng":"9.126014"},"link":{"intel":"https://intel.ingress.com/intel?ll=45.485482,9.126014&z=16&pll=45.485482,9.126014","gmap":"https://google.com/maps/place/45.485482,9.126014"},"image":"https://lh3.googleusercontent.com/jg8g5JCBJyzpdSkBn1NV5Oc7B2pRLeP6HNzZR6L3l4g-J3vfJo-X7Ri1XFS9gDQSYY78zPd8xn7gEX25X-5g_YWn1A"},
{"guid":"8f0e7f116c184c1f89b1814c37d40004.16","title":"Eternal Eagle Horse Murales Ippodromo","coordinates":{"lat":"45.485676","lng":"9.125448"},"link":{"intel":"https://intel.ingress.com/intel?ll=45.485676,9.125448&z=16&pll=45.485676,9.125448","gmap":"https://google.com/maps/place/45.485676,9.125448"},"image":"https://lh3.googleusercontent.com/RYrU1y2t0O8ZqxXf7ai7XuddXmd3fDVdv3GgyjTCAYd5X6bWzPGO4u1twcYTyQG-qUnintsQlh-MwurwXAx08x0t6w"},
{"guid":"461eb26f3fbe3e67983a348d3038ca59.16","title":"Christagram - Murales","coordinates":{"lat":"45.485828","lng":"9.125066"},"link":{"intel":"https://intel.ingress.com/intel?ll=45.485828,9.125066&z=16&pll=45.485828,9.125066","gmap":"https://google.com/maps/place/45.485828,9.125066"},"image":"https://lh3.googleusercontent.com/_vEBnLrGXYmryWAz87fGIDMJ84AK9tDz2POeJWhCulv1vUGGcMC6CziGVdNuiJD2svlhaBaK2CBuITI43H26Ap0Ztoy0V8pBkMcrja58JQ"},
{"guid":"6ece5bc59e783782a8d187a5623da69f.16","title":"PaintMan - Murales","coordinates":{"lat":"45.485779","lng":"9.125238"},"link":{"intel":"https://intel.ingress.com/intel?ll=45.485779,9.125238&z=16&pll=45.485779,9.125238","gmap":"https://google.com/maps/place/45.485779,9.125238"},"image":"https://lh3.googleusercontent.com/brOzVzwzlmUcJ3jAabCCqYKkn8jjIpD1sBtF8s-btuKmFZ64N46Mnn9_OrpmPfOK6_PSe9JRyhYbAMvRT53eoCDcMsMe-uvNuzz4OwQB"},
{"guid":"23f07fc0b92f3cecb02a5356df6f874a.16","title":"Il Vecchio Saggio - Murales","coordinates":{"lat":"45.4856","lng":"9.12597"},"link":{"intel":"https://intel.ingress.com/intel?ll=45.4856,9.12597&z=16&pll=45.4856,9.12597","gmap":"https://google.com/maps/place/45.4856,9.12597"},"image":"https://lh3.googleusercontent.com/HCGuGRSFddYo8aEpWsSOaYP4yt26W75YuzxvEP0HPptPJHKKbDVswQieQMQUc8h8RbEmi29mjrynxE3o7TYn22-JLvLM5irrJ2Vgfy_r"},
{"guid":"f6fc363aa43c39dbb1f3adb9b196a2f8.16","title":"Statua di uomo senza un braccio","coordinates":{"lat":"45.484909","lng":"9.135514"},"link":{"intel":"https://intel.ingress.com/intel?ll=45.484909,9.135514&z=16&pll=45.484909,9.135514","gmap":"https://google.com/maps/place/45.484909,9.135514"},"image":"https://lh3.googleusercontent.com/7C6xzPbJwXm8cauvdd_sLPvbktpU-L78lWpANRAoHWG6Mr5kL1ifbgukpootOqkGs8gGfkTowHnFp8MQNZgJacLkCEX0BAYLIuvLQBc"},
{"guid":"fc5aac809ab6445e8c8c2410bb264d93.16","title":"LA Green Loop Murales Ippodromo","coordinates":{"lat":"45.4833","lng":"9.134675"},"link":{"intel":"https://intel.ingress.com/intel?ll=45.4833,9.134675&z=16&pll=45.4833,9.134675","gmap":"https://google.com/maps/place/45.4833,9.134675"},"image":"https://lh3.googleusercontent.com/OFDEzHabOa0KDbxvq_VgSbNa3YBpYFqQEACgI9-j2CAwuUFitpWmxHQxA39zZVGrCY5JmEu7sfL2CKPzpApG_7dXe_s"},
{"guid":"83d7fcf7f6de4ede8202e2d12b912608.16","title":"69 Horse Racer Murales Ippodromo","coordinates":{"lat":"45.483991","lng":"9.13234"},"link":{"intel":"https://intel.ingress.com/intel?ll=45.483991,9.13234&z=16&pll=45.483991,9.13234","gmap":"https://google.com/maps/place/45.483991,9.13234"},"image":"https://lh3.googleusercontent.com/6FkzK2do4XodossO4JDk8pZjR7uBxjKoIVcTDDbwTadc4SIiyWaATbMqNA3Eh4N6xzFQ18Vz0X6Mn7U2p5yBK_IvqiA"},
{"guid":"eadfc32f71c848d8ac18ec5cbb252ab3.16","title":"Wild Hog Murales Ippodromo","coordinates":{"lat":"45.484739","lng":"9.129014"},"link":{"intel":"https://intel.ingress.com/intel?ll=45.484739,9.129014&z=16&pll=45.484739,9.129014","gmap":"https://google.com/maps/place/45.484739,9.129014"},"image":"https://lh3.googleusercontent.com/a2ncVoSTgov8thUSkhP7ckkifGlwalvJRq89XR5LyRF0-NWNGxeb1qW4ZRh9_hV33kvkPYoXeAWR6KfpvVqFCrADO-U"},
{"guid":"b386df24f7363b38a47978728ef41c3d.16","title":"Il Goblin Calciatore - Murales","coordinates":{"lat":"45.484623","lng":"9.129677"},"link":{"intel":"https://intel.ingress.com/intel?ll=45.484623,9.129677&z=16&pll=45.484623,9.129677","gmap":"https://google.com/maps/place/45.484623,9.129677"},"image":"https://lh3.googleusercontent.com/ykPvKZdHerY5so60CgahuDVnA8O68ItAm_zqYBl9ezydqS9xJOUCzHfeSZLmk0wImDoCgxeZgfyVri7-HMYbMan-a7_sWPfH-M9Y2h4R"},
{"guid":"f7ef35732aef46919ec7e8a581fc7653.16","title":"FOXKO Horse Murales Ippodromo","coordinates":{"lat":"45.4844","lng":"9.130241"},"link":{"intel":"https://intel.ingress.com/intel?ll=45.4844,9.130241&z=16&pll=45.4844,9.130241","gmap":"https://google.com/maps/place/45.4844,9.130241"},"image":"https://lh3.googleusercontent.com/O-MR0Ra83cO9FPSMBdYm3DRRqxAge2m6HTs6QDsPgDJdaBRgjDGTWhqtbkE5t9jKb4J81G1V9AwtnXjtMh3Dd2blAwk"},
{"guid":"f541852ca196410080de44c14d420669.16","title":"Turtle Racer Murales Ippodromo","coordinates":{"lat":"45.484328","lng":"9.130614"},"link":{"intel":"https://intel.ingress.com/intel?ll=45.484328,9.130614&z=16&pll=45.484328,9.130614","gmap":"https://google.com/maps/place/45.484328,9.130614"},"image":"https://lh3.googleusercontent.com/nOnHeCP_5y2lErr6--IuS4uETL_Wsmsi0se1W2WNtm-oJiKIW9-eKnhQPTnK0CWhNqEh82UF19jEH6DKmS4wBw-v9A1V"},
{"guid":"53999ca7ad183c9b9b5774b988a4f062.16","title":"Picchiarello - Murales","coordinates":{"lat":"45.484318","lng":"9.131135"},"link":{"intel":"https://intel.ingress.com/intel?ll=45.484318,9.131135&z=16&pll=45.484318,9.131135","gmap":"https://google.com/maps/place/45.484318,9.131135"},"image":"https://lh3.googleusercontent.com/5iEbwjXskbzH96W79Sz00o2c65wXKw3dQNsmtcUzbC1djH4-ISGtdJSrNfghgz2xnPWqu3Uiv7ozRs3qJI16WHCAX-Ec6L0S4x73cyUo"},
{"guid":"aab5a79b397c4ec18d98073585b9637f.16","title":"campetto san siro","coordinates":{"lat":"45.484569","lng":"9.131995"},"link":{"intel":"https://intel.ingress.com/intel?ll=45.484569,9.131995&z=16&pll=45.484569,9.131995","gmap":"https://google.com/maps/place/45.484569,9.131995"},"image":"https://lh3.googleusercontent.com/jP9F8zR9p8epSYrS-zBdQJewFXHug4NXaG1kSBB6cxpI-5pdvaDmQEGziTwJmp7i56M2-2l3nc7Fktpl5puOCHioJoBs"},
{"guid":"b655ca08b2c34b34ac9fa639188944e6.16","title":"Cavallo Un Po Timido","coordinates":{"lat":"45.480105","lng":"9.133918"},"link":{"intel":"https://intel.ingress.com/intel?ll=45.480105,9.133918&z=16&pll=45.480105,9.133918","gmap":"https://google.com/maps/place/45.480105,9.133918"},"image":"https://lh3.googleusercontent.com/fu_2VWayn5Xi1TbfLxy8QHdYgjXnEnEuMJKfrrLvifUJJVe8UNl39xKxd85z2GBr1Fpt0v6dPDoXXI_huCq8yK8PY9th"},
{"guid":"eefa965f215741c9998028da42cf51d3.16","title":"Ape Felice","coordinates":{"lat":"45.480191","lng":"9.13355"},"link":{"intel":"https://intel.ingress.com/intel?ll=45.480191,9.13355&z=16&pll=45.480191,9.13355","gmap":"https://google.com/maps/place/45.480191,9.13355"},"image":"https://lh3.googleusercontent.com/kdaW1JVT3sX7GUbJmBt0iuN8bQlE4LJ28e2NqKQjfLl5nMykzLr8rkfWfXS3co6N4Shd3aSYzbgYFWhHqPUKZZ9hzg"},
{"guid":"29b726a578ad3d59933c75f672133e51.16","title":"El Footballer - Murales","coordinates":{"lat":"45.480068","lng":"9.134398"},"link":{"intel":"https://intel.ingress.com/intel?ll=45.480068,9.134398&z=16&pll=45.480068,9.134398","gmap":"https://google.com/maps/place/45.480068,9.134398"},"image":"https://lh3.googleusercontent.com/pdFE-0nmKGgdquiW_bV9Svm5yz4TDnIUQRzzoVWbWKSoIH6q8XoaGOeCwvI_zk4z-QqBv0CgsT9J5pGsrkBD6VrENSvdncc1xAk_BDHQ"},
{"guid":"d0c88e88a70c498aab0f592f0a8023ed.16","title":"Cavallo Teribbile","coordinates":{"lat":"45.480002","lng":"9.134701"},"link":{"intel":"https://intel.ingress.com/intel?ll=45.480002,9.134701&z=16&pll=45.480002,9.134701","gmap":"https://google.com/maps/place/45.480002,9.134701"},"image":"https://lh3.googleusercontent.com/cztgKCZmJ57wuxrUgyoeC025u04JOIPAHSRKQmvFNkwIKMBABkbpy55wt8I6s6B4TIcd4lEEOAU-fyhpldZAoPBUPK7B"},
{"guid":"3fa43e91fd894d41b19eb0f6e8e7a353.12","title":"Ippodromo - Cavallo di Leonardo Da Vinci","coordinates":{"lat":"45.480873","lng":"9.129626"},"link":{"intel":"https://intel.ingress.com/intel?ll=45.480873,9.129626&z=16&pll=45.480873,9.129626","gmap":"https://google.com/maps/place/45.480873,9.129626"},"image":"https://lh3.googleusercontent.com/OkEccihb0SrZN-j2_4vk4VHs2fMVErdeuewthjnikMm1u9TTHJAXhTrw5w9_exH0gyEmvc2klCpuMt3s_LLOiaLIsSgL"},
{"guid":"d872e3dabe8d3765a8b57d3f67a345fa.16","title":"Vamos Bien - Murales","coordinates":{"lat":"45.480506","lng":"9.130585"},"link":{"intel":"https://intel.ingress.com/intel?ll=45.480506,9.130585&z=16&pll=45.480506,9.130585","gmap":"https://google.com/maps/place/45.480506,9.130585"},"image":"https://lh3.googleusercontent.com/cbEf3VeO4aF4Gen_s-F-Cul1eJ00QvAtHDWKskddZpIyZ8hppsDfWCNor5WqWlq998Gy3ECoEUP0zp96ZSchkPoJkCYZm_mMfiGIiBPm"},
{"guid":"9c45fe4a383244a8840c7099e8d472e4.16","title":"Fontana Ippodromo Del Galoppo","coordinates":{"lat":"45.481303","lng":"9.128173"},"link":{"intel":"https://intel.ingress.com/intel?ll=45.481303,9.128173&z=16&pll=45.481303,9.128173","gmap":"https://google.com/maps/place/45.481303,9.128173"},"image":"https://lh3.googleusercontent.com/PBkg-eCAW3VvJjvhP43s-1CBm36TI4X8Cr1VmZb_-hKcOMjNZq9BRV0b42S_BmlXN-ChwFy4FCsaxe52sRVuTvb5"},
{"guid":"fe825c1440ad48d4a0461b5a1a97f8e6.16","title":"Milan inter","coordinates":{"lat":"45.480144","lng":"9.129507"},"link":{"intel":"https://intel.ingress.com/intel?ll=45.480144,9.129507&z=16&pll=45.480144,9.129507","gmap":"https://google.com/maps/place/45.480144,9.129507"},"image":"https://lh3.googleusercontent.com/Y54PjnvSJ9HHVaKdEBeiSNq_FmXlD0IJuRZAkKtayMeiXSTd20IVezxxGGD227HQ52kO4tbf1kwD5p8MDUJ7PzD3lhRh53iZTXCdizwX"},
{"guid":"c9281c558d5c481d946987f370cdd9a8.16","title":"Ippodromo Del Galoppo","coordinates":{"lat":"45.480901","lng":"9.127996"},"link":{"intel":"https://intel.ingress.com/intel?ll=45.480901,9.127996&z=16&pll=45.480901,9.127996","gmap":"https://google.com/maps/place/45.480901,9.127996"},"image":"https://lh3.googleusercontent.com/nl12F242nJD6aY4-KqCejaAsDSIC4cWcKQccxoW99fmbPkeT3RPivQE7UZCTHbxaEbiwY_sTlueuko81sN_LzZ2suPzP"},
{"guid":"bccd0b2b346e3ccf971398f51964d804.16","title":"La Guardia Michelin - Murales","coordinates":{"lat":"45.479574","lng":"9.129373"},"link":{"intel":"https://intel.ingress.com/intel?ll=45.479574,9.129373&z=16&pll=45.479574,9.129373","gmap":"https://google.com/maps/place/45.479574,9.129373"},"image":"https://lh3.googleusercontent.com/7v4orab6G-GLNYMC96hWHnCVIwsgji0DA-zWbtj-RIdDRdh3IHcqcPP8HWR44QsMgy0nL4UvrLoPQa6FNbd7y54rD5JJP5EbocRM-OoW"},
{"guid":"b552061803db477b9db73bc434dad90a.16","title":"Cavallo Nella Prateria","coordinates":{"lat":"45.480422","lng":"9.130173"},"link":{"intel":"https://intel.ingress.com/intel?ll=45.480422,9.130173&z=16&pll=45.480422,9.130173","gmap":"https://google.com/maps/place/45.480422,9.130173"},"image":"https://lh3.googleusercontent.com/T38lG1DE9MAiC0NDxGw3w7-aqJaSR7eFePGAthZreN2oIn8mlpUl_pcAcme1ccXHjqt2IAM0rY2eBmg4sLgZk6MW0Q"},
{"guid":"dc01e020218c30f98b75ce0d597f705f.16","title":"La magia di Leonardo graffiti","coordinates":{"lat":"45.480457","lng":"9.131881"},"link":{"intel":"https://intel.ingress.com/intel?ll=45.480457,9.131881&z=16&pll=45.480457,9.131881","gmap":"https://google.com/maps/place/45.480457,9.131881"},"image":"https://lh3.googleusercontent.com/IiRDh-BI3vLiKSbBfOd1adoKQ_EgPlqqXWKW4hLivd4M3nUNylJwni2ArGs0y0fXRk4_7M6k55CTenSfEab4vkH5_bc"},
{"guid":"1da95f6b8d4b4496876d5a9fd3a4c6b5.16","title":"Green Leo graffiti","coordinates":{"lat":"45.480484","lng":"9.130978"},"link":{"intel":"https://intel.ingress.com/intel?ll=45.480484,9.130978&z=16&pll=45.480484,9.130978","gmap":"https://google.com/maps/place/45.480484,9.130978"},"image":"https://lh3.googleusercontent.com/lSR0YL8i9bdtZLo0XB4LWkXjeL267Ndj3v-9zdxi7d6KlBcm1m1xNtf4m4w9CNMSP2FR9zIIJARB6-k9GR0V4Ijkd8o"},
{"guid":"adabb50f6ff64238bfb5a4dfe35f5be4.16","title":"Cavallo Destrutturato","coordinates":{"lat":"45.48028","lng":"9.132954"},"link":{"intel":"https://intel.ingress.com/intel?ll=45.48028,9.132954&z=16&pll=45.48028,9.132954","gmap":"https://google.com/maps/place/45.48028,9.132954"},"image":"https://lh3.googleusercontent.com/Xuedyn28dYu49Aw0XDjx1eiOmOy73aU_DVAIqWwdRGY4uh7Kj2skv3z95ePO31SnMpb-sOtj8rMepgBAtUSAnfI2c4c"},
{"guid":"c13e92b34eb94558bcb2962b17519997.16","title":"Il Duello #1 Graffiti","coordinates":{"lat":"45.480417","lng":"9.132404"},"link":{"intel":"https://intel.ingress.com/intel?ll=45.480417,9.132404&z=16&pll=45.480417,9.132404","gmap":"https://google.com/maps/place/45.480417,9.132404"},"image":"https://lh3.googleusercontent.com/MGNg6t5Amz5YQWYA8NGLo9mCqriRmrCDT0yp7U9kU7IqjNfximsVnwDczcW_1o-Iih1_q5RH7jG6Ag70CLN5Qs_2x_mR"},
{"guid":"66afcf1e4acc43fea6838c754ef6544d.16","title":"The Captain Graffiti","coordinates":{"lat":"45.48046","lng":"9.131522"},"link":{"intel":"https://intel.ingress.com/intel?ll=45.48046,9.131522&z=16&pll=45.48046,9.131522","gmap":"https://google.com/maps/place/45.48046,9.131522"},"image":"https://lh3.googleusercontent.com/f7Stv9xuaxbaQvbi-8_pSJQ9ixSZ5K7r5QFPbxWXgB3spTMERLPNeJEwuzR-y_PIqPrRboD70OydOaCV2cfH0Gv6E0p4"},
{"guid":"d2dd5121b5b84ce1b739a42c93c8fb41.16","title":"Il Duello #2 Graffiti","coordinates":{"lat":"45.480331","lng":"9.132637"},"link":{"intel":"https://intel.ingress.com/intel?ll=45.480331,9.132637&z=16&pll=45.480331,9.132637","gmap":"https://google.com/maps/place/45.480331,9.132637"},"image":"https://lh3.googleusercontent.com/ocz34eRfiA0Ttdj0xSqt1i1tjHvl5TbmPVrr9xp_C3CpwSVAIsBLqrFbz39P1IqB8QleyfgZyH0PFu5fTHnbrp8MxQ"},
{"guid":"6a6fa05c093a3407b70860de93535e34.16","title":"Il Pomodoro Calciatore - Murales","coordinates":{"lat":"45.480246","lng":"9.133476"},"link":{"intel":"https://intel.ingress.com/intel?ll=45.480246,9.133476&z=16&pll=45.480246,9.133476","gmap":"https://google.com/maps/place/45.480246,9.133476"},"image":"https://lh3.googleusercontent.com/evmsY8BfZ8rE-7uUggyTnHaolXXvu4KFhCcsztqDT4qKrONWxQAFPgrqBcqtfVVV9KA75KINYoauN6F8y_WxHy1nRb7ATPO7QAO3cnLT"},
{"guid":"c4f167bead003bad9ccf6b4edf3268de.16","title":"Pixel Leonardo - Murales","coordinates":{"lat":"45.480282","lng":"9.133272"},"link":{"intel":"https://intel.ingress.com/intel?ll=45.480282,9.133272&z=16&pll=45.480282,9.133272","gmap":"https://google.com/maps/place/45.480282,9.133272"},"image":"https://lh3.googleusercontent.com/pJaZEqCNqCHfu3cwtlkAu87mXbqZSSc4DMlGYT5BwxyJvBqyXP5jwGbh_IR3uiHOq6BrThtItN2XJLlR-PDdv0XCO08DWquYS48A9ywjMA"},
{"guid":"a74c80bf8ba33e8b94ed4e72b972b1d4.16","title":"Donna vitruviana senza ermellino e smalto","coordinates":{"lat":"45.48133","lng":"9.125423"},"link":{"intel":"https://intel.ingress.com/intel?ll=45.48133,9.125423&z=16&pll=45.48133,9.125423","gmap":"https://google.com/maps/place/45.48133,9.125423"},"image":"https://lh3.googleusercontent.com/eDUrKt_2JvXHNSzKbCZy2Wv0DxUqZ7pvO1wmVzdklwHPIQXKrzktM1DZDSJo8V2ewk0d5z-BC8UgszFD1swSSfGkAebHSVJ-NCDedc2y"},
{"guid":"9175135e02dc352eb50ae944325692b0.16","title":"Il Grembo Materno - Murales","coordinates":{"lat":"45.481328","lng":"9.125419"},"link":{"intel":"https://intel.ingress.com/intel?ll=45.481328,9.125419&z=16&pll=45.481328,9.125419","gmap":"https://google.com/maps/place/45.481328,9.125419"},"image":"https://lh3.googleusercontent.com/KXM8zDBPNHWskt3oz9-9iKvgMB5JKOnd2M40m1zw2M0seaYJu9hy3vHuX0VnzGRmjjERyxbhNZ7kzvr8ARFrru4eO3oVKfEwNN_-jc1W"},
{"guid":"88124c68031a33228124de1b31d7d5ad.16","title":"Lady rinascimentale","coordinates":{"lat":"45.480957","lng":"9.126725"},"link":{"intel":"https://intel.ingress.com/intel?ll=45.480957,9.126725&z=16&pll=45.480957,9.126725","gmap":"https://google.com/maps/place/45.480957,9.126725"},"image":"https://lh3.googleusercontent.com/bbFoEVejaUuSp2Ii7FnFOSgAO4Xgn_sueO9g5UjKVOZPNwXCP2Smc5QwzAsGZyTIUqDwlyPme2smhxrUImjQf6H04YK-RXMXhxvoDAWr"},
{"guid":"48d0fc4be4893dcaaa3ef2edc1336137.16","title":"Dee Dee - Murales","coordinates":{"lat":"45.481146","lng":"9.125934"},"link":{"intel":"https://intel.ingress.com/intel?ll=45.481146,9.125934&z=16&pll=45.481146,9.125934","gmap":"https://google.com/maps/place/45.481146,9.125934"},"image":"https://lh3.googleusercontent.com/zaa_grySCPl6AcGv45g0FqhIhNX34FNzRcuYlDWoz3RqjWlZIHDOALaqxkHfEGH_-drDsKfJ6JGGJwB0Iu1n4EeL3Iv6vzrwixK0_Ut0"},
{"guid":"e2ab9111ebc640a3865d0f75bb5a2a7b.16","title":"Jumping Racer Murales Ippodromo","coordinates":{"lat":"45.483816","lng":"9.132591"},"link":{"intel":"https://intel.ingress.com/intel?ll=45.483816,9.132591&z=16&pll=45.483816,9.132591","gmap":"https://google.com/maps/place/45.483816,9.132591"},"image":"https://lh3.googleusercontent.com/7XhmXfZaIlgg-tKjN9b8Z-SjcvceZfgHNie4do_kUu_hlW78vAhKTry4EWy92wnBjm2U7JVL4sGy38Zl8iRomAV7UqFH"},
{"guid":"90f003f7dd2835f98b58a50913914a7f.16","title":"Non Ci Resta Che Piangere - Murales","coordinates":{"lat":"45.483566","lng":"9.134189"},"link":{"intel":"https://intel.ingress.com/intel?ll=45.483566,9.134189&z=16&pll=45.483566,9.134189","gmap":"https://google.com/maps/place/45.483566,9.134189"},"image":"https://lh3.googleusercontent.com/eUcx3NgeOAYy1ofRQs5StbdFIuxjBN_z9pVH9iCEt_44GT256urcmzv6SqtZqV90KTG4XAn_7nvqJWmGacs3-EysmK4jUCFnO_gHRD08"},
{"guid":"b33f9e91af04451589b311aa7e6e80bd.16","title":"Cubistic Horse - Murales ippodromo","coordinates":{"lat":"45.483818","lng":"9.133062"},"link":{"intel":"https://intel.ingress.com/intel?ll=45.483818,9.133062&z=16&pll=45.483818,9.133062","gmap":"https://google.com/maps/place/45.483818,9.133062"},"image":"https://lh3.googleusercontent.com/ZmCtZ5MCZuhDVLLHu_JZ-YqUihrrVD1-mKg8yuvmyRZ9qXGKq5n3brb8fB9Q12bBPpQCqfgU8BZWy6YebGzc6n2m37NTF_y3-ZI-wN5Gqg"},
{"guid":"2ae3e0383ef24d4b855a2d247bedc44a.16","title":"Dynosaur Murales Ippodromo","coordinates":{"lat":"45.483984","lng":"9.131898"},"link":{"intel":"https://intel.ingress.com/intel?ll=45.483984,9.131898&z=16&pll=45.483984,9.131898","gmap":"https://google.com/maps/place/45.483984,9.131898"},"image":"https://lh3.googleusercontent.com/MQ54P6oxfe5hiGcdYEBODORN16uKF1-50z55mhp7PYUnq_Ji0GLw0z4j1fz0XCXkiornwFeto9IEoy1oVCg__6Qu_WY"},
{"guid":"b11d17cfac733c9b87ba834e799af47e.16","title":"Il Gioco in Piazza - Murales","coordinates":{"lat":"45.483776","lng":"9.133386"},"link":{"intel":"https://intel.ingress.com/intel?ll=45.483776,9.133386&z=16&pll=45.483776,9.133386","gmap":"https://google.com/maps/place/45.483776,9.133386"},"image":"https://lh3.googleusercontent.com/T-EDoLafn0HnGy5P0EI217UO3HrWC7EiQezQKCdZYveKiwpMNgSwnFhDm_dgEcFMawlhBSMJWyPr8BPr5u37JxCKeQtF8V8qaYimH2BEKg"},
{"guid":"7877ef53678a41599cf76cb171522512.16","title":"Stone Horse Setting Sun Murales Ippodromo","coordinates":{"lat":"45.483506","lng":"9.133967"},"link":{"intel":"https://intel.ingress.com/intel?ll=45.483506,9.133967&z=16&pll=45.483506,9.133967","gmap":"https://google.com/maps/place/45.483506,9.133967"},"image":"https://lh3.googleusercontent.com/igWVjSHETtEAcBQQsbD8g5RXXniCR-GhtYUXsGHso0OeWXs6yqmBFwQR5m884Z72NI3D4Wk0P_qh7v8_8SwEhCHe1vA"},
{"guid":"5fa9a3bb366c3cb7b9e37f568884f0b9.16","title":"La Dama di Corte - Murales","coordinates":{"lat":"45.481461","lng":"9.124957"},"link":{"intel":"https://intel.ingress.com/intel?ll=45.481461,9.124957&z=16&pll=45.481461,9.124957","gmap":"https://google.com/maps/place/45.481461,9.124957"},"image":"https://lh3.googleusercontent.com/539QUsS8O6s_-bgbt3xliTN0c_EwWdB5FPwES86G8ITzBIOhW32KfW5VbfYEhZZ3yg627jfFtpUIOzVc_fJCqhUtBH0VPE8Sas69ZL60"},
{"guid":"1edfc278dd2245cba6f682201d9801b7.16","title":"Recte Et Fortiter","coordinates":{"lat":"45.481558","lng":"9.124627"},"link":{"intel":"https://intel.ingress.com/intel?ll=45.481558,9.124627&z=16&pll=45.481558,9.124627","gmap":"https://google.com/maps/place/45.481558,9.124627"},"image":"https://lh3.googleusercontent.com/gH_DjKatz5CyD41TdUZoVRSdpzVhRfb80LanLeal8ey8He0jmrZJ0eGy3Bl1bRe2hxmXnkhL--Im52wCSZRyKifCxSQ"},
{"guid":"55dc0ac76d7633559ddb05f4b196a466.16","title":"Le Sorelle - Murales","coordinates":{"lat":"45.481655","lng":"9.124874"},"link":{"intel":"https://intel.ingress.com/intel?ll=45.481655,9.124874&z=16&pll=45.481655,9.124874","gmap":"https://google.com/maps/place/45.481655,9.124874"},"image":"https://lh3.googleusercontent.com/ybWkPY5Krrs1K9UMm390MXSozxwI0byvibYmj2I4VXfFqAbXiRlze8B6lOr7qcELz58Mg874EdVZ6zo1mY4U7FO1L3FzlFvfPYENP7g"},
{"guid":"bc71dc66ae7b4f2fbbd9382e1764992e.16","title":"Cavaliere","coordinates":{"lat":"45.479673","lng":"9.135888"},"link":{"intel":"https://intel.ingress.com/intel?ll=45.479673,9.135888&z=16&pll=45.479673,9.135888","gmap":"https://google.com/maps/place/45.479673,9.135888"},"image":"https://lh3.googleusercontent.com/pCbfsl4vOjcdoLmpIOMPWrOSuDKxcH9Xv6JPSnoxVPFRd0F-zRYZNIYaWetQG21Ij57fVoU0l2qvtPzz4VaAMOJJQQ"},
{"guid":"cacbba814ea748b09198036e02d1e795.16","title":"Draghetto incazzoso","coordinates":{"lat":"45.479817","lng":"9.135322"},"link":{"intel":"https://intel.ingress.com/intel?ll=45.479817,9.135322&z=16&pll=45.479817,9.135322","gmap":"https://google.com/maps/place/45.479817,9.135322"},"image":"https://lh3.googleusercontent.com/wGT_SJ9s8EFJeCkYODWiW5DqFUREF01HJH6rMS5NxcJVOMR7N2Wm8x6zoBPAAgGqERw4ji-7dRhqTHnpEr9phiAmE05G"},
{"guid":"eb59f031b94e4fd1b6fe1cec58efee4a.16","title":"Cavallo Mangiaerba","coordinates":{"lat":"45.479184","lng":"9.138297"},"link":{"intel":"https://intel.ingress.com/intel?ll=45.479184,9.138297&z=16&pll=45.479184,9.138297","gmap":"https://google.com/maps/place/45.479184,9.138297"},"image":"https://lh3.googleusercontent.com/E-Iz6RCYnwtOYNk9l003dUOqivYIZIZgKLKlvJkdnepDjDy4giJLE3f-LLMNK704W429BDHYcsiWnWM0Krcu4IyCQTM"},
{"guid":"c52af36e6b04484caf5f328b68c0e97e.16","title":"Gorillaz blu","coordinates":{"lat":"45.479053","lng":"9.138868"},"link":{"intel":"https://intel.ingress.com/intel?ll=45.479053,9.138868&z=16&pll=45.479053,9.138868","gmap":"https://google.com/maps/place/45.479053,9.138868"},"image":"https://lh3.googleusercontent.com/mKRVSNy26fvyn9JAi9DRyD-R5lIXFMPRiWz9mwXCDwRKYrHyFw7MQn8uWJJFlEZ-uw6JzlrOWRJmkpds3lxrzrHmeLE"},
{"guid":"be176d1e51bc43368887d7a4568b9bdd.16","title":"The Woman Sword - Murales","coordinates":{"lat":"45.479454","lng":"9.137199"},"link":{"intel":"https://intel.ingress.com/intel?ll=45.479454,9.137199&z=16&pll=45.479454,9.137199","gmap":"https://google.com/maps/place/45.479454,9.137199"},"image":"https://lh3.googleusercontent.com/3aqc73Ju1X65Y9pMkTu2L1tFjkqzWkuR7kL3PgpvsfPH1shqC0Rz1znapFEV1FHr8Y1z820MnsMEA25a04iOgBJiN9TbiCvCxIFhgXE"},
{"guid":"72780e5a80c0414fad7cdb203e47f5e9.16","title":"The Skull - Murales","coordinates":{"lat":"45.479408","lng":"9.13775"},"link":{"intel":"https://intel.ingress.com/intel?ll=45.479408,9.13775&z=16&pll=45.479408,9.13775","gmap":"https://google.com/maps/place/45.479408,9.13775"},"image":"https://lh3.googleusercontent.com/Yf1w5kkFHZsU8b47Byo-jsb0YlgOu1wtKj14ESw2zDnk6_uMjMtCDCNjZZ4RZ14btOkeVsCFIg_56V-UzzHlL4GhSRpWHFmIkro5ra0Q"},
{"guid":"3aa492f3bda544e5ae1916f91429fee7.16","title":"Biga a due piazze","coordinates":{"lat":"45.479565","lng":"9.136384"},"link":{"intel":"https://intel.ingress.com/intel?ll=45.479565,9.136384&z=16&pll=45.479565,9.136384","gmap":"https://google.com/maps/place/45.479565,9.136384"},"image":"https://lh3.googleusercontent.com/z7MLRMtu8H-aRBbYVIIxQsMY5iyEKFSdAtmVBFvdq-oYjsRkZ0vzG5TmSdVVIr0-F_EnLEK4Lem0D319sWQxEZRBMA"},
{"guid":"7977a304ead943d2b9a7c43b32eb833f.16","title":"Sainte Anne Matrone","coordinates":{"lat":"45.482252","lng":"9.144876"},"link":{"intel":"https://intel.ingress.com/intel?ll=45.482252,9.144876&z=16&pll=45.482252,9.144876","gmap":"https://google.com/maps/place/45.482252,9.144876"},"image":"https://lh3.googleusercontent.com/uyZH_v_Ge_PqczUnKb438IGeVT_2ChbzS8x0Q4rWALVqXQb21YyIjqZHZ5traF8XXM7qQkOqKv0Ehb168xLi1Z-61OU"},
{"guid":"e22dfbf8fd5238b1aeef1dfba0bf0fe1.16","title":"Murales Homer Simpson","coordinates":{"lat":"45.48109","lng":"9.143319"},"link":{"intel":"https://intel.ingress.com/intel?ll=45.48109,9.143319&z=16&pll=45.48109,9.143319","gmap":"https://google.com/maps/place/45.48109,9.143319"},"image":"https://lh3.googleusercontent.com/ZYkQmGELhk6w-n_er8_2fqByq3A3mNmTtvg8RmjFjCAS15G_8-33m00QpFxNPoXvXkL6efMY052SD7iz1inWGSwoKZXyrPjWxps90CpVJA"},
{"guid":"0825ebdcf27538cc803db5035d60c1e2.16","title":"Murales Caffè","coordinates":{"lat":"45.481802","lng":"9.1448"},"link":{"intel":"https://intel.ingress.com/intel?ll=45.481802,9.1448&z=16&pll=45.481802,9.1448","gmap":"https://google.com/maps/place/45.481802,9.1448"},"image":"https://lh3.googleusercontent.com/bc5Fn4IWHIudMN5qFPIcj1T5UiE9DaaWu0a2vqBulMZCrCqHX0RJmYEPb9MUfOVMd036IWqxjKcVcZQW2f4hp8vlzvLt6mk4f4jh0G8"},
{"guid":"56bfbdbd28d83426b71b538a7455c4cc.16","title":"La Città Astratta","coordinates":{"lat":"45.481346","lng":"9.143463"},"link":{"intel":"https://intel.ingress.com/intel?ll=45.481346,9.143463&z=16&pll=45.481346,9.143463","gmap":"https://google.com/maps/place/45.481346,9.143463"},"image":"https://lh3.googleusercontent.com/Os-lgQwkgxQTow7YfFvjYAZvF4DD_fOFdqJNh00argOyWTdBvgs4IuXKk-iBSStx0RRWNAHKKemEixhN315WXRqC2B5BY_SdC-cSi54MtQ"},
{"guid":"24e84b05c76a42c9b8c2122f7e6842b2.16","title":"Triade Di Animali Neon","coordinates":{"lat":"45.484212","lng":"9.142892"},"link":{"intel":"https://intel.ingress.com/intel?ll=45.484212,9.142892&z=16&pll=45.484212,9.142892","gmap":"https://google.com/maps/place/45.484212,9.142892"},"image":"https://lh3.googleusercontent.com/iQKRbK3_6D2-W-AlxzF_LrwdxP0QecrNisb3JbsJyWvN8GbEakNnP_j0-ecSWACS9QUcoNiTtLvbP16RWkKaukmiTmk"},
{"guid":"f222be9d84a143a6b3343a5f3fc57cb5.16","title":"Murales Rinascimentale","coordinates":{"lat":"45.480134","lng":"9.14083"},"link":{"intel":"https://intel.ingress.com/intel?ll=45.480134,9.14083&z=16&pll=45.480134,9.14083","gmap":"https://google.com/maps/place/45.480134,9.14083"},"image":"https://lh3.googleusercontent.com/v3XWXfRQduqc_isJPMUOgypcefRPEpZpORa-Jj6aC4xVqa2ehbNAw_x-3UOntbb0PujzPUjJz9oVClvULJZisQpR2P5zS1VxcVXlLbjJ"},
{"guid":"40fbe6012ff54614a5993d213903da89.16","title":"Gatto Omer","coordinates":{"lat":"45.480636","lng":"9.140814"},"link":{"intel":"https://intel.ingress.com/intel?ll=45.480636,9.140814&z=16&pll=45.480636,9.140814","gmap":"https://google.com/maps/place/45.480636,9.140814"},"image":"https://lh3.googleusercontent.com/4XUykirG-3PQwuGF01ampP1KtHHuhFsEBcSYj9S7J-gAv4RUqh71bgELQqcgMPSax-k_O22BMpLkP3iBz9xxPm3JJ_8"},
{"guid":"4817def09d594ffd9c9ba0e6f1febb22.16","title":"Fontana Vecchia","coordinates":{"lat":"45.479638","lng":"9.141108"},"link":{"intel":"https://intel.ingress.com/intel?ll=45.479638,9.141108&z=16&pll=45.479638,9.141108","gmap":"https://google.com/maps/place/45.479638,9.141108"},"image":"https://lh3.googleusercontent.com/zXIo4KySmr_yFB31qpZ5uS5cj_4aqTo1rn2H2zR90jJPR5N0bWFkmUz0_k7jEk-zbK4kPn_oe1Ng58leA50xQeXMug"},
{"guid":"76806042b68649a3b1c2ec908fcd4b30.16","title":"Bassorilievo Dio Apollo","coordinates":{"lat":"45.480492","lng":"9.141885"},"link":{"intel":"https://intel.ingress.com/intel?ll=45.480492,9.141885&z=16&pll=45.480492,9.141885","gmap":"https://google.com/maps/place/45.480492,9.141885"},"image":"https://lh3.googleusercontent.com/FhwkpcMdkn--VFqCm1_IGv4O1EsaGUwgVqtEDlG_HgQdhHOIwScRrrxwaHSDB4G2SfuJeCHUvq21TVlpiGsW9naYJiE"},
{"guid":"66cebe24ec483c5bb60d4976ac61e51c.16","title":"La Scapigliata - Murales via Caprilli","coordinates":{"lat":"45.478908","lng":"9.139358"},"link":{"intel":"https://intel.ingress.com/intel?ll=45.478908,9.139358&z=16&pll=45.478908,9.139358","gmap":"https://google.com/maps/place/45.478908,9.139358"},"image":"https://lh3.googleusercontent.com/fptWfBTP1oU4w4279WZ9UoZ8r0edUpdGHTXA13Mqu8cyCzunIUikW5XjDcXKGMPDQAeQJhS8N8kcZiGsJaQDaNmPQOXz9cFyL_aOJacbGQ"},
{"guid":"e3b9d34b03094309b6780a978470929d.16","title":"I Due Amici - Murales","coordinates":{"lat":"45.478853","lng":"9.140402"},"link":{"intel":"https://intel.ingress.com/intel?ll=45.478853,9.140402&z=16&pll=45.478853,9.140402","gmap":"https://google.com/maps/place/45.478853,9.140402"},"image":"https://lh3.googleusercontent.com/-_4F1N1ypprIMMmEr_h0pqJxMns5IXiaOIP50XreDuDg1iAtyG8frHuGKPNhbJWWZloygEhbsh07XfiRmgDynolecGRZ-L0CBq6_mh33qg"},
{"guid":"655b775cff223cc899e71ff9910efb29.16","title":"Murales medioevale","coordinates":{"lat":"45.479836","lng":"9.140607"},"link":{"intel":"https://intel.ingress.com/intel?ll=45.479836,9.140607&z=16&pll=45.479836,9.140607","gmap":"https://google.com/maps/place/45.479836,9.140607"},"image":"https://lh3.googleusercontent.com/p9RWG2pn6kIzEbnwLDqrbjjTRZS-QoURIZYxB8vv3jPe0GO3A8YESvnorZeBlP2yIt0AW-QipnvfDXMF7SpqLe_sAlRK"},
{"guid":"543aa61c35614f6fb5c886802f235c8f.16","title":"Cavalli Bianchi Graffiti","coordinates":{"lat":"45.478958","lng":"9.140155"},"link":{"intel":"https://intel.ingress.com/intel?ll=45.478958,9.140155&z=16&pll=45.478958,9.140155","gmap":"https://google.com/maps/place/45.478958,9.140155"},"image":"https://lh3.googleusercontent.com/vmL_D8ue2vG1Au4NGy49wYtoUSkYnXXOYuGldYAXd3sjIuZfdpaad0IdYPVmBey8DYtR2CUyUAeDgZyhyhVJM4m1KJs"},
{"guid":"0d2ba171e742439dafbd179f83d2d324.16","title":"Spectrum Street Art","coordinates":{"lat":"45.478743","lng":"9.139963"},"link":{"intel":"https://intel.ingress.com/intel?ll=45.478743,9.139963&z=16&pll=45.478743,9.139963","gmap":"https://google.com/maps/place/45.478743,9.139963"},"image":"https://lh3.googleusercontent.com/xstGIiH23da5cPp6Px3uEPt5HbwZZnnILGevzkRzQl999Kge9r5ezoE7rXjr7qBnnYAG8A4Xx0iiHohQIgOm1K8IlA"},
{"guid":"c1cad660b42448b1b52af65e14888900.11","title":"Bassorilievo Equino","coordinates":{"lat":"45.480237","lng":"9.141667"},"link":{"intel":"https://intel.ingress.com/intel?ll=45.480237,9.141667&z=16&pll=45.480237,9.141667","gmap":"https://google.com/maps/place/45.480237,9.141667"},"image":"https://lh3.googleusercontent.com/jZ-M6vswmo5on8wsSLrHTl4-JC03HM1qUGzzY5sv431Qm1t1MFgrao14ig2eiZ9ybkxJ3uCKlBNG6uumjJHvIvQb_w"},
{"guid":"4d64f5e937ef4638baa08cc5e6e58304.16","title":"Area Cani Piazzale Lotto","coordinates":{"lat":"45.479548","lng":"9.14137"},"link":{"intel":"https://intel.ingress.com/intel?ll=45.479548,9.14137&z=16&pll=45.479548,9.14137","gmap":"https://google.com/maps/place/45.479548,9.14137"},"image":"https://lh3.googleusercontent.com/5PaoQd90kZLzq1ZQ3le1XjDknm5F1Kn-6rSNfuJbgyXew8Y3AdX2K2-ip97dgXE8XTR4elrh6JOAhBknz0TctFJiRUzsjb7JNTo_hEM"},
{"guid":"1c33ac4ee544488796a8b0740097f9ab.16","title":"Lido di Milano","coordinates":{"lat":"45.4806","lng":"9.142256"},"link":{"intel":"https://intel.ingress.com/intel?ll=45.4806,9.142256&z=16&pll=45.4806,9.142256","gmap":"https://google.com/maps/place/45.4806,9.142256"},"image":"https://lh3.googleusercontent.com/1K-eI-gvugoO_EreHtWstpv5L7YJKgQRG_e7L6-PsEZSUvwX7luRMwd5z59wRcda-qz1idJHtl6iv1w-i0w3U_RWzdhU"},
{"guid":"76db085c030248f78dd70472d993038e.16","title":"Pirata a Cavallo","coordinates":{"lat":"45.47939","lng":"9.14036"},"link":{"intel":"https://intel.ingress.com/intel?ll=45.47939,9.14036&z=16&pll=45.47939,9.14036","gmap":"https://google.com/maps/place/45.47939,9.14036"},"image":"https://lh3.googleusercontent.com/DHD5U-U6sSV9SNV9lJ4nfcxUueQqLp8zT-c0acvf6Khd7Jy7lQNUDzKzD7XtgNr9rUU3nTHs7RTR113GURkbJFJLvHQ"},
{"guid":"edf1a61904064a45b15546861e77cb31.16","title":"Il Lego Vitruviano","coordinates":{"lat":"45.480481","lng":"9.141048"},"link":{"intel":"https://intel.ingress.com/intel?ll=45.480481,9.141048&z=16&pll=45.480481,9.141048","gmap":"https://google.com/maps/place/45.480481,9.141048"},"image":"https://lh3.googleusercontent.com/7Du8eXepesMu-dij_kUXxndwnhJQDuTTnjIFdNIVWjfU01nGS-AC7jV1Kl0X1Vg9AUg9T8mSJMVIz-4NN8vsGl3VvP9eT16VFQIodJk"},
{"guid":"6897ce5103fa3df8acbdc2524e11af12.16","title":"Allianz cloud arena","coordinates":{"lat":"45.482473","lng":"9.14268"},"link":{"intel":"https://intel.ingress.com/intel?ll=45.482473,9.14268&z=16&pll=45.482473,9.14268","gmap":"https://google.com/maps/place/45.482473,9.14268"},"image":"https://lh3.googleusercontent.com/JfhlCIlEMZuQqvJe8fMfTkzunOwG01MzDXeVqld7ngo0UgrfrpuQ46HqMoYscSuNuHOBlxV-MPcO_tNwO-jvn35Dhzak9OHDQwaF-ic"},
{"guid":"ce6db1271d4e354d9e012e78471c8640.16","title":"La Coppa del Mondo - Murale","coordinates":{"lat":"45.481604","lng":"9.140187"},"link":{"intel":"https://intel.ingress.com/intel?ll=45.481604,9.140187&z=16&pll=45.481604,9.140187","gmap":"https://google.com/maps/place/45.481604,9.140187"},"image":"https://lh3.googleusercontent.com/qAYwRVB2GF6hjgdbwh1PYIpJ3doEhkneQY5JMgx0YYPlvz5D0EGYNRh_EmD4ns3gFtYLe3lWM495c02fx5V93tUAJD6e6btJjqPI1-hyxQ"},
{"guid":"7f16e96421ea377faf99d12444436fd0.16","title":"Il Calciatore - Murales","coordinates":{"lat":"45.481109","lng":"9.14045"},"link":{"intel":"https://intel.ingress.com/intel?ll=45.481109,9.14045&z=16&pll=45.481109,9.14045","gmap":"https://google.com/maps/place/45.481109,9.14045"},"image":"https://lh3.googleusercontent.com/gULh5RqiXToWbnOxEbUVc8Y30dZwoDAGsjo-EsjW66L4ItZ8RNBzi-2mn-kcbGJWYnPMLNkRNz95eXDDwbxYeaJyYt0vsoREdeU8_4PwxA"},
{"guid":"e117b58d680c44c3990b58d9fcffff48.16","title":"Galeone del Lido","coordinates":{"lat":"45.4813","lng":"9.141376"},"link":{"intel":"https://intel.ingress.com/intel?ll=45.4813,9.141376&z=16&pll=45.4813,9.141376","gmap":"https://google.com/maps/place/45.4813,9.141376"},"image":"https://lh3.googleusercontent.com/0kkAs9RJQNJnmhSOPie3oa5yB5Tl_0VujT4-2_ggDM1j3vOBLj2Dk7Br2b5aste3HvFyVT6_r8qiW1zykBzz1pYAabaU"},
{"guid":"d1a22789324844e0b42223cf9ed66963.16","title":"The Pushers Murales Ippodromo","coordinates":{"lat":"45.48271","lng":"9.137236"},"link":{"intel":"https://intel.ingress.com/intel?ll=45.48271,9.137236&z=16&pll=45.48271,9.137236","gmap":"https://google.com/maps/place/45.48271,9.137236"},"image":"https://lh3.googleusercontent.com/M4VlEkdcPYn2unoGBVfSOhisbCbBP0t1QutYCaNyImWTzldRb3IA9tcYDNCXYDwRZPtli1i1kEMSkDVWCh2gKnZyqQ"},
{"guid":"7bb8afd42fec473e9fd68dafa2df5830.16","title":"Tripping Murales Ippodromo","coordinates":{"lat":"45.483044","lng":"9.135746"},"link":{"intel":"https://intel.ingress.com/intel?ll=45.483044,9.135746&z=16&pll=45.483044,9.135746","gmap":"https://google.com/maps/place/45.483044,9.135746"},"image":"https://lh3.googleusercontent.com/dDlNIex9GzpHk_CIEbiHzBjuMBwcdaDgz0eefzj2N20V8J3yuw8Gqx9mFOjFXXqNquUSQAVJ19liRYJGs4I6snUtzgY"},
{"guid":"be143098901245c4a7e9ec4cc50006ba.16","title":"Green Dragon - Murales Ippodromo","coordinates":{"lat":"45.482981","lng":"9.13651"},"link":{"intel":"https://intel.ingress.com/intel?ll=45.482981,9.13651&z=16&pll=45.482981,9.13651","gmap":"https://google.com/maps/place/45.482981,9.13651"},"image":"https://lh3.googleusercontent.com/iRKXhmvngD8YIkhNFsbfvJCeU_nECOx041NHuhIzo3B1z7l6VVrvEK-EVxxtDVaL6B_VujBQXBUFj9uB1WJEVK4Xy9oMJ9yt-7cHTpc"},
{"guid":"32f32786755836358a6fe67fe45bfbe3.16","title":"Paolo Rossi - Murales","coordinates":{"lat":"45.482907","lng":"9.136869"},"link":{"intel":"https://intel.ingress.com/intel?ll=45.482907,9.136869&z=16&pll=45.482907,9.136869","gmap":"https://google.com/maps/place/45.482907,9.136869"},"image":"https://lh3.googleusercontent.com/4AEfb_0fhGGTDLtr5MRTgvotY4UoCOKyzKfLlmunI1X8MPl-b170Ym2P25pyC0eyuHTqMW4QkAxpcouQ8jQiHprlvgn92ejN-OSbZCtp3w"},
{"guid":"0fc9129e75a74ac5a015706eb430028d.16","title":"Fontana Piazzale Lotto","coordinates":{"lat":"45.479586","lng":"9.143441"},"link":{"intel":"https://intel.ingress.com/intel?ll=45.479586,9.143441&z=16&pll=45.479586,9.143441","gmap":"https://google.com/maps/place/45.479586,9.143441"},"image":"https://lh3.googleusercontent.com/xHTG0CUyPlCC23ixT36dbCcqO9iWaY6tTGVynfzhSDRtuqdnrMq1JJWHDgcCMlH942suViCPOGRxIDLotBREiE2b4Hc"},
{"guid":"8768a8d2763244f18e285a9ba8cc70f3.16","title":"Cuore Con L’Occhio","coordinates":{"lat":"45.479276","lng":"9.142684"},"link":{"intel":"https://intel.ingress.com/intel?ll=45.479276,9.142684&z=16&pll=45.479276,9.142684","gmap":"https://google.com/maps/place/45.479276,9.142684"},"image":"https://lh3.googleusercontent.com/o1sAHpioEILhYBwAT53L5mEChtufG6DbGKsOlewF-soZY0N5uc9dLrapPHWJ5r-xPcTPSXwUTUolzDaIX37EaZjdcaHk"},
{"guid":"29e3898588ae3bccb83178e17ce16d0f.16","title":"Bassorilievo dei bambini","coordinates":{"lat":"45.484599","lng":"9.140343"},"link":{"intel":"https://intel.ingress.com/intel?ll=45.484599,9.140343&z=16&pll=45.484599,9.140343","gmap":"https://google.com/maps/place/45.484599,9.140343"},"image":"https://lh3.googleusercontent.com/GaFf3DeaoFBe1rdh6o43-DHtDutYxHK_IVVf9BRpZ9kljZc5v-QCLxU7zTNM79wqv0iMvx9s8hC-uxcSeprFkmcA1jLLDdB-ur28L1Yx"},
{"guid":"3e44b70a85044d1ba5abc0a0e16b0619.16","title":"Murales Da Vinci","coordinates":{"lat":"45.482696","lng":"9.137886"},"link":{"intel":"https://intel.ingress.com/intel?ll=45.482696,9.137886&z=16&pll=45.482696,9.137886","gmap":"https://google.com/maps/place/45.482696,9.137886"},"image":"https://lh3.googleusercontent.com/pTM-jokshxeojpef2TJv7nToU7Z3f1K-LHaumgD6Xhwbyq-0cHv2uxuHlVaxcPXaU7a-vLXwAcFFre5UTCRnPXw9LZ4"},
{"guid":"cfb899498a5d4406b88bba8fb3be8e13.16","title":"Genius Mind Run Fast Murales Ippodromo","coordinates":{"lat":"45.482391","lng":"9.138415"},"link":{"intel":"https://intel.ingress.com/intel?ll=45.482391,9.138415&z=16&pll=45.482391,9.138415","gmap":"https://google.com/maps/place/45.482391,9.138415"},"image":"https://lh3.googleusercontent.com/2KkG03Y8NmPdum4uGwsZzAaOgnTICDuzi66_1lwJGU6AM2sl4GCE7des17ZrOBILDuwBsO1sUS1ipK9lzbuZXTXFnhQ"},
{"guid":"471916a07e67317fb96547c3f114ebb8.16","title":"Van Gogh Il Numero 10 - Murales","coordinates":{"lat":"45.481984","lng":"9.139804"},"link":{"intel":"https://intel.ingress.com/intel?ll=45.481984,9.139804&z=16&pll=45.481984,9.139804","gmap":"https://google.com/maps/place/45.481984,9.139804"},"image":"https://lh3.googleusercontent.com/jB8yJ32i2lGvruzU14IJNLHknHjbvUBoMjxpx4LmYxSajLFgHLTB34v0_-8wT9Ewd47JS_XnNQxHr0qtScPog5aMcW23o1t0UNtTHqA"},
{"guid":"db97e9a7593b440b99060d241d1c6339.16","title":"Artist Maker Murales Ippodromo","coordinates":{"lat":"45.482188","lng":"9.139284"},"link":{"intel":"https://intel.ingress.com/intel?ll=45.482188,9.139284&z=16&pll=45.482188,9.139284","gmap":"https://google.com/maps/place/45.482188,9.139284"},"image":"https://lh3.googleusercontent.com/IwAdQJwgBxOe3lZppegzR3b0Tk5PBLJPn8x7OwPo4UtwLV6Vti1uR0t38u04nj9SwzbRYiSZWicoW39N038oOAZIh-mx"},
{"guid":"0a0c284dff5e40f488d3c28d18901a82.16","title":"Real Racing Murales Ippodromo","coordinates":{"lat":"45.483118","lng":"9.137853"},"link":{"intel":"https://intel.ingress.com/intel?ll=45.483118,9.137853&z=16&pll=45.483118,9.137853","gmap":"https://google.com/maps/place/45.483118,9.137853"},"image":"https://lh3.googleusercontent.com/AVIh0vmjUeWQHQ6pzLS-vqvYyMGu7qZUf4FJ6ENwjL7gtQOBMoQXKmpAdZcJjpdUxouBWcjGIoeuwX_T78Tm4dEL0_c"},
{"guid":"29f8c2629551312aa3f84f2ac984742e.16","title":"Il Dipinto - Murales","coordinates":{"lat":"45.482358","lng":"9.139071"},"link":{"intel":"https://intel.ingress.com/intel?ll=45.482358,9.139071&z=16&pll=45.482358,9.139071","gmap":"https://google.com/maps/place/45.482358,9.139071"},"image":"https://lh3.googleusercontent.com/yJ_3ETUzu0SIkkuWmeRMf1kmrUJPwH7zW9pMe-qq7bXp_63mkei2CiY4DBWkjcnduslFf1ULNzpuyK8v4cPujx85JfVRz0iwTeyEmz9h"},
{"guid":"20dd5f820f8d3561b46b4479c421f87c.16","title":"Hot Wheels - Murales","coordinates":{"lat":"45.482276","lng":"9.139418"},"link":{"intel":"https://intel.ingress.com/intel?ll=45.482276,9.139418&z=16&pll=45.482276,9.139418","gmap":"https://google.com/maps/place/45.482276,9.139418"},"image":"https://lh3.googleusercontent.com/mkHrUxO6V0SNzqNcRSt2-nG7jen8vw1etI16eX3uhVLB0JWLUiuK6hmGgt0u5LRTpqzeH0E23LsIJ7d1oYC4R6x9bpwOLtEYRLG3NIsl"},
{"guid":"08e8467e6a883bafaccc2fbfd18d3e9c.16","title":"Drago verde piazza gavirate","coordinates":{"lat":"45.477689","lng":"9.140935"},"link":{"intel":"https://intel.ingress.com/intel?ll=45.477689,9.140935&z=16&pll=45.477689,9.140935","gmap":"https://google.com/maps/place/45.477689,9.140935"},"image":"https://lh3.googleusercontent.com/KmNz0r1DVju9LCfA_QDVX_VqWJW3QFhdheJ_SP0fk_ZW3FOlI9OKy4yTD31DnNBfFJbFxs10aLaaYJW_G6vqbSIWjd8TespZMiTAz1OI"},
{"guid":"203859d52ec84df9bf97828a4a587111.16","title":"Consolato Generale di Romania","coordinates":{"lat":"45.478172","lng":"9.140247"},"link":{"intel":"https://intel.ingress.com/intel?ll=45.478172,9.140247&z=16&pll=45.478172,9.140247","gmap":"https://google.com/maps/place/45.478172,9.140247"},"image":"https://lh3.googleusercontent.com/zhSmHaUXPdnwMTBXX39rHL3wUM67D3GenTtPa5ReUiubSize2Vvf3r4ARh68N5XChhae38PaKAplm1eaTMdTUBgr_aaySeeKO7VUDxPm"},
{"guid":"22be43b12c6946128e8e9998684c52f7.16","title":"Murales ad Alexander Fleming","coordinates":{"lat":"45.476053","lng":"9.142237"},"link":{"intel":"https://intel.ingress.com/intel?ll=45.476053,9.142237&z=16&pll=45.476053,9.142237","gmap":"https://google.com/maps/place/45.476053,9.142237"},"image":"https://lh3.googleusercontent.com/N6DjYY_gPgdL9_vh78ToNqAVeqxKYQnp-zbanW65awmKCif9gaOxpRo08IWEgGfHEVtzFEqRMWmKGdm2z0SSBcY2TUg"},
{"guid":"a87367f691ac33ffb2124902f90fe34d.16","title":"Maradona - Murales","coordinates":{"lat":"45.483329","lng":"9.135165"},"link":{"intel":"https://intel.ingress.com/intel?ll=45.483329,9.135165&z=16&pll=45.483329,9.135165","gmap":"https://google.com/maps/place/45.483329,9.135165"},"image":"https://lh3.googleusercontent.com/Vm_MM-g-LMgxUXLoUmRYcL_OlC6L2CTR1lPzUiD4OF9uP_Y_QpgGJwO1VQikqptnceFAPOjwVr5g0XHY5qI8zGJRQGh4J_TJW6gbatDk"}]